[
  {
    "id": "SU65_21",
    "lastReading": "2026-04-08T11:00:00Z",
    "lat": null,
    "level": 93.134,
    "lon": null,
    "name": "142 Pack Lane OBH",
    "readings": 669,
    "river": "Unknown",
    "status": "offline",
    "town": "",
    "unit": "mAOD"
  },
  {
    "id": "SU74_011",
    "lastReading": "2026-04-08T10:00:00Z",
    "lat": null,
    "level": 85.862,
    "lon": null,
    "name": "6 Cottages Clean OBH",
    "readings": 167,
    "river": "Unknown",
    "status": "offline",
    "town": "",
    "unit": "mAOD"
  },
  {
    "id": "720215",
    "lastReading": "2026-04-08T11:15:00Z",
    "lat": 53.858854,
    "level": 0.376,
    "lon": -2.743276,
    "name": "A6 Bridge",
    "readings": 671,
    "river": "River Brock",
    "status": "normal",
    "town": "Bilsborrow",
    "unit": "m"
  },
  {
    "id": "E12513",
    "lastReading": "2026-04-08T11:20:46Z",
    "lat": 51.060548,
    "level": 35.732,
    "lon": -1.310016,
    "name": "ABBEY MILL RL",
    "readings": 1322,
    "river": "Unknown",
    "status": "severe",
    "town": "",
    "unit": "mAOD"
  },
  {
    "id": "E4350",
    "lastReading": "2026-04-08T11:30:00Z",
    "lat": 51.105308,
    "level": 44.626,
    "lon": 0.950683,
    "name": "ALDINGTON FSA DS",
    "readings": 671,
    "river": "Unknown",
    "status": "severe",
    "town": "",
    "unit": "mAOD"
  },
  {
    "id": "45173",
    "lastReading": "2026-04-08T11:00:00Z",
    "lat": null,
    "level": 11.341,
    "lon": null,
    "name": "ALFINGTON NORTH",
    "readings": 670,
    "river": "Unknown",
    "status": "severe",
    "town": "",
    "unit": "mBDAT"
  },
  {
    "id": "E9882",
    "lastReading": "2026-04-08T11:30:00Z",
    "lat": null,
    "level": 0.342,
    "lon": null,
    "name": "ALFOLDEAN GS",
    "readings": 671,
    "river": "Unknown",
    "status": "normal",
    "town": "",
    "unit": "m3/s"
  },
  {
    "id": "E4838",
    "lastReading": "2026-04-08T11:30:00Z",
    "lat": 53.261383,
    "level": 3.859,
    "lon": 0.17789,
    "name": "ALFORD GS WITS",
    "readings": 671,
    "river": "Unknown",
    "status": "severe",
    "town": "",
    "unit": "mAOD"
  },
  {
    "id": "E12432",
    "lastReading": "2026-04-08T11:15:00Z",
    "lat": 50.987906,
    "level": 2.327,
    "lon": -1.343862,
    "name": "ALLBROOK GS",
    "readings": 671,
    "river": "Unknown",
    "status": "severe",
    "town": "",
    "unit": "m3/s"
  },
  {
    "id": "E3041",
    "lastReading": "2026-04-08T11:15:00Z",
    "lat": 52.949749,
    "level": 0.078,
    "lon": -0.703007,
    "name": "ALLINGTON GS WITS",
    "readings": 671,
    "river": "Unknown",
    "status": "normal",
    "town": "",
    "unit": "m3/s"
  },
  {
    "id": "E580",
    "lastReading": "2026-04-08T11:15:00Z",
    "lat": 51.289276,
    "level": 6.595,
    "lon": 0.509035,
    "name": "ALLINGTON USGS",
    "readings": 671,
    "river": "Unknown",
    "status": "severe",
    "town": "",
    "unit": "m3/s"
  },
  {
    "id": "E15090",
    "lastReading": "2026-04-08T11:20:45Z",
    "lat": null,
    "level": 20.115,
    "lon": null,
    "name": "ALVERSTONE GWL",
    "readings": 838,
    "river": "Unknown",
    "status": "severe",
    "town": "",
    "unit": "mAOD"
  },
  {
    "id": "SU99_67",
    "lastReading": "2026-04-08T10:00:00Z",
    "lat": null,
    "level": 78.574,
    "lon": null,
    "name": "AMERSHAM ROAD OBH",
    "readings": 167,
    "river": "Unknown",
    "status": "offline",
    "town": "",
    "unit": "mAOD"
  },
  {
    "id": "SP00_62",
    "lastReading": "2026-04-08T10:00:00Z",
    "lat": null,
    "level": 102.064,
    "lon": null,
    "name": "AMPNEY CRUCIS OBH",
    "readings": 167,
    "river": "Unknown",
    "status": "offline",
    "town": "",
    "unit": "mAOD"
  },
  {
    "id": "SP00_55",
    "lastReading": "2026-04-08T07:00:00Z",
    "lat": null,
    "level": 93.908,
    "lon": null,
    "name": "AMPNEY ST PETER OBH",
    "readings": 164,
    "river": "Unknown",
    "status": "offline",
    "town": "",
    "unit": "mAOD"
  },
  {
    "id": "E4840",
    "lastReading": "2026-04-08T11:30:00Z",
    "lat": 53.258,
    "level": 0.269,
    "lon": 0.325551,
    "name": "ANDERBY CREEK SLUICE",
    "readings": 671,
    "river": "Unknown",
    "status": "normal",
    "town": "",
    "unit": "mAOD"
  },
  {
    "id": "48109",
    "lastReading": "2026-04-08T08:15:00Z",
    "lat": 50.192101,
    "level": 0.061,
    "lon": -5.383946,
    "name": "ANGARRACK",
    "readings": 659,
    "river": "Unknown",
    "status": "normal",
    "town": "",
    "unit": "m"
  },
  {
    "id": "E8263",
    "lastReading": "2026-04-08T11:00:00Z",
    "lat": 51.039038,
    "level": 0.113,
    "lon": -0.099359,
    "name": "ARDINGLY OUSE GS",
    "readings": 670,
    "river": "Unknown",
    "status": "normal",
    "town": "",
    "unit": "m3/s"
  },
  {
    "id": "E8240",
    "lastReading": "2026-04-08T11:15:00Z",
    "lat": 51.041711,
    "level": 37.643,
    "lon": -0.097823,
    "name": "ARDINGLY SHELLBROOK GS",
    "readings": 671,
    "river": "Unknown",
    "status": "severe",
    "town": "",
    "unit": "mAOD"
  },
  {
    "id": "E8242",
    "lastReading": "2026-04-08T11:30:00Z",
    "lat": 51.041373,
    "level": 0.115,
    "lon": -0.097452,
    "name": "ARDINGLY SHELLBROOK GS",
    "readings": 671,
    "river": "Unknown",
    "status": "normal",
    "town": "",
    "unit": "m3/s"
  },
  {
    "id": "E22346",
    "lastReading": "2026-04-08T11:00:00Z",
    "lat": 52.026749,
    "level": 0.393,
    "lon": -0.266824,
    "name": "ARLESEY GS",
    "readings": 670,
    "river": "Unknown",
    "status": "normal",
    "town": "",
    "unit": "m3/s"
  },
  {
    "id": "E3481",
    "lastReading": "2026-04-08T11:30:00Z",
    "lat": null,
    "level": 0.594,
    "lon": null,
    "name": "ASH LEVEL PS",
    "readings": 671,
    "river": "Unknown",
    "status": "normal",
    "town": "",
    "unit": "mAOD"
  },
  {
    "id": "E4360",
    "lastReading": "2026-04-08T11:15:00Z",
    "lat": 51.142293,
    "level": 33.962,
    "lon": 0.877089,
    "name": "ASHFORD CROSSING USGS",
    "readings": 671,
    "river": "Unknown",
    "status": "severe",
    "town": "",
    "unit": "mAOD"
  },
  {
    "id": "E4362",
    "lastReading": "2026-04-08T11:15:00Z",
    "lat": 51.142293,
    "level": 0.564,
    "lon": 0.877089,
    "name": "ASHFORD CROSSING USGS",
    "readings": 671,
    "river": "Unknown",
    "status": "normal",
    "town": "",
    "unit": "m3/s"
  },
  {
    "id": "531171",
    "lastReading": "2026-04-08T11:15:00Z",
    "lat": 51.438888,
    "level": 4.985,
    "lon": -2.626483,
    "name": "ASHTON VALE",
    "readings": 671,
    "river": "Unknown",
    "status": "severe",
    "town": "",
    "unit": "mAOD"
  },
  {
    "id": "E14541",
    "lastReading": "2026-04-08T11:15:00Z",
    "lat": 50.911386,
    "level": 0.033,
    "lon": -1.509934,
    "name": "ASHURST BRIDGE GS",
    "readings": 671,
    "river": "Unknown",
    "status": "normal",
    "town": "",
    "unit": "m3/s"
  },
  {
    "id": "531167",
    "lastReading": "2026-04-08T11:15:00Z",
    "lat": 51.496678,
    "level": 47.895,
    "lon": -2.066914,
    "name": "AVON MILL",
    "readings": 671,
    "river": "Unknown",
    "status": "severe",
    "town": "",
    "unit": "mAOD"
  },
  {
    "id": "531168",
    "lastReading": "2026-04-08T11:15:00Z",
    "lat": 51.496678,
    "level": 49.308,
    "lon": -2.066914,
    "name": "AVON MILL",
    "readings": 671,
    "river": "Unknown",
    "status": "severe",
    "town": "",
    "unit": "mAOD"
  },
  {
    "id": "531165",
    "lastReading": "2026-04-08T11:15:00Z",
    "lat": 51.511693,
    "level": 50.649,
    "lon": -2.066547,
    "name": "AVON WEIR",
    "readings": 671,
    "river": "Unknown",
    "status": "offline",
    "town": "",
    "unit": "mAOD"
  },
  {
    "id": "531166",
    "lastReading": "2026-04-08T11:15:00Z",
    "lat": 51.511693,
    "level": 49.356,
    "lon": -2.066547,
    "name": "AVON WEIR",
    "readings": 671,
    "river": "Unknown",
    "status": "severe",
    "town": "",
    "unit": "mAOD"
  },
  {
    "id": "53118",
    "lastReading": "2026-04-08T11:15:00Z",
    "lat": 51.508182,
    "level": 3.511,
    "lon": -2.718065,
    "name": "AVONMOUTH TIDAL",
    "readings": 671,
    "river": "Unknown",
    "status": "severe",
    "town": "",
    "unit": "mAOD"
  },
  {
    "id": "E4417",
    "lastReading": "2026-04-08T11:00:00Z",
    "lat": 51.135619,
    "level": 0.134,
    "lon": 0.8924,
    "name": "AYLESFORD STREAM USGS",
    "readings": 670,
    "river": "Unknown",
    "status": "normal",
    "town": "",
    "unit": "m3/s"
  },
  {
    "id": "E23730",
    "lastReading": "2026-04-08T11:15:00Z",
    "lat": 52.425882,
    "level": 0.255,
    "lon": 0.720787,
    "name": "Abbey Heath",
    "readings": 670,
    "river": "River Little Ouse",
    "status": "normal",
    "town": "Abbey Heath",
    "unit": "m"
  },
  {
    "id": "2700",
    "lastReading": "2026-04-08T11:15:00Z",
    "lat": 51.991326,
    "level": 9.851,
    "lon": -2.162837,
    "name": "Abbey Mill GATE",
    "readings": 671,
    "river": "Unknown",
    "status": "severe",
    "town": "",
    "unit": "mASD"
  },
  {
    "id": "SJ56_125",
    "lastReading": "2026-04-08T06:00:00Z",
    "lat": null,
    "level": 2.664,
    "lon": null,
    "name": "Abbotts D Scouts Gate",
    "readings": 163,
    "river": "Unknown",
    "status": "severe",
    "town": "",
    "unit": "m"
  },
  {
    "id": "SJ56_126",
    "lastReading": "2026-04-08T06:00:00Z",
    "lat": null,
    "level": 5.631,
    "lon": null,
    "name": "Abbotts E",
    "readings": 163,
    "river": "Unknown",
    "status": "severe",
    "town": "",
    "unit": "m"
  },
  {
    "id": "E70724",
    "lastReading": "2026-04-08T11:30:00Z",
    "lat": 57.14406,
    "level": 1.599,
    "lon": -2.08013,
    "name": "Aberdeen",
    "readings": 669,
    "river": "Unknown",
    "status": "severe",
    "town": "",
    "unit": "m"
  },
  {
    "id": "E70739",
    "lastReading": "2026-04-08T11:15:00Z",
    "lat": 57.14406,
    "level": -0.724,
    "lon": -2.08013,
    "name": "Aberdeen",
    "readings": 669,
    "river": "Unknown",
    "status": "normal",
    "town": "",
    "unit": "mAOD"
  },
  {
    "id": "1790TH",
    "lastReading": "2026-04-08T11:15:00Z",
    "lat": 51.666656,
    "level": -0.281,
    "lon": -1.305189,
    "name": "Abingdon",
    "readings": 671,
    "river": "River Ock",
    "status": "normal",
    "town": "Abingdon",
    "unit": "mASD"
  },
  {
    "id": "1681TH",
    "lastReading": "2026-04-08T11:15:00Z",
    "lat": 51.683092,
    "level": 0.65,
    "lon": -1.268125,
    "name": "Abingdon Peachcroft",
    "readings": 671,
    "river": "Radley Park Ditch",
    "status": "normal",
    "town": "Abingdon",
    "unit": "mASD"
  },
  {
    "id": "SU56_116",
    "lastReading": "2026-04-08T10:00:00Z",
    "lat": null,
    "level": 58.047,
    "lon": null,
    "name": "Able Bridge OBH",
    "readings": 167,
    "river": "Unknown",
    "status": "offline",
    "town": "",
    "unit": "mAOD"
  },
  {
    "id": "023062",
    "lastReading": "2026-04-08T11:30:00Z",
    "lat": 54.988973,
    "level": 0.001,
    "lon": -2.110623,
    "name": "Acomb Garden House",
    "readings": 671,
    "river": "Birkey Burn",
    "status": "normal",
    "town": "Acomb Garden House",
    "unit": "m"
  },
  {
    "id": "023063",
    "lastReading": "2026-04-08T11:30:00Z",
    "lat": 54.994482,
    "level": 0.283,
    "lon": -2.110967,
    "name": "Acomb Millersfield",
    "readings": 671,
    "river": "Red Burn",
    "status": "normal",
    "town": "Acomb Millersfield",
    "unit": "m"
  },
  {
    "id": "SP00_146",
    "lastReading": "2026-04-08T06:00:00Z",
    "lat": null,
    "level": 114.094,
    "lon": null,
    "name": "Acotts Barn OBH",
    "readings": 163,
    "river": "Unknown",
    "status": "offline",
    "town": "",
    "unit": "mAOD"
  },
  {
    "id": "682218",
    "lastReading": "2026-04-08T11:30:00Z",
    "lat": 53.279474,
    "level": 2.654,
    "lon": -2.599522,
    "name": "Acton Bridge",
    "readings": 671,
    "river": "River Weaver",
    "status": "severe",
    "town": "Acton Bridge",
    "unit": "m"
  },
  {
    "id": "7050",
    "lastReading": "2026-04-08T09:00:00Z",
    "lat": null,
    "level": 7.71,
    "lon": null,
    "name": "Adcote LVL",
    "readings": 166,
    "river": "Unknown",
    "status": "severe",
    "town": "",
    "unit": "mBDAT"
  },
  {
    "id": "4181",
    "lastReading": "2026-04-08T11:15:00Z",
    "lat": 52.991475,
    "level": 0.22,
    "lon": -2.013285,
    "name": "Adderley (Cheadle) LVL",
    "readings": 671,
    "river": "Unknown",
    "status": "normal",
    "town": "",
    "unit": "mASD"
  },
  {
    "id": "L1931",
    "lastReading": "2026-04-08T11:15:00Z",
    "lat": 53.944393,
    "level": 0.114,
    "lon": -1.886441,
    "name": "Addingham, Town Beck",
    "readings": 671,
    "river": "Town Beck",
    "status": "normal",
    "town": "Addingham",
    "unit": "m"
  },
  {
    "id": "4259",
    "lastReading": "2026-04-08T11:30:00Z",
    "lat": 53.023273,
    "level": 0.144,
    "lon": -1.680181,
    "name": "Agnes Meadow",
    "readings": 671,
    "river": "Henmore Brook",
    "status": "normal",
    "town": "Agnes Meadow Bridge, Ashbourne",
    "unit": "mASD"
  },
  {
    "id": "TA04A000CC",
    "lastReading": "2026-04-08T06:00:00Z",
    "lat": null,
    "level": 2.646,
    "lon": null,
    "name": "Aike",
    "readings": 650,
    "river": "Unknown",
    "status": "severe",
    "town": "",
    "unit": "mAOD"
  },
  {
    "id": "SD31_45",
    "lastReading": "2026-04-08T07:00:00Z",
    "lat": null,
    "level": 1.675,
    "lon": null,
    "name": "Ainsdale High School",
    "readings": 164,
    "river": "Unknown",
    "status": "severe",
    "town": "",
    "unit": "m"
  },
  {
    "id": "NY54_10",
    "lastReading": "2026-04-08T07:00:00Z",
    "lat": null,
    "level": 23.243,
    "lon": null,
    "name": "Ainstable",
    "readings": 164,
    "river": "Unknown",
    "status": "severe",
    "town": "",
    "unit": "m"
  },
  {
    "id": "SJ79_34A",
    "lastReading": "2026-04-08T07:00:00Z",
    "lat": null,
    "level": 5.265,
    "lon": null,
    "name": "Akzo Noble",
    "readings": 164,
    "river": "Unknown",
    "status": "severe",
    "town": "",
    "unit": "m"
  },
  {
    "id": "2846",
    "lastReading": "2026-04-08T11:00:00Z",
    "lat": null,
    "level": 36.5,
    "lon": null,
    "name": "Albrighton ABH",
    "readings": 168,
    "river": "Unknown",
    "status": "severe",
    "town": "",
    "unit": "mBDAT"
  },
  {
    "id": "E19027",
    "lastReading": "2026-04-08T11:15:00Z",
    "lat": 52.377001,
    "level": 0.196,
    "lon": -0.269421,
    "name": "Alconbury Weston",
    "readings": 670,
    "river": "Alconbury Brook",
    "status": "normal",
    "town": "Alconbury Weston",
    "unit": "mASD"
  },
  {
    "id": "E4351",
    "lastReading": "2026-04-08T11:15:00Z",
    "lat": 51.105167,
    "level": -0.042,
    "lon": 0.948046,
    "name": "Aldington Upstream",
    "readings": 671,
    "river": "East Stour Trib  Great Stour",
    "status": "normal",
    "town": "Aldington",
    "unit": "mASD"
  },
  {
    "id": "E9883",
    "lastReading": "2026-04-08T11:15:00Z",
    "lat": 51.086792,
    "level": 0.124,
    "lon": -0.406225,
    "name": "Alfoldean",
    "readings": 671,
    "river": "River Arun",
    "status": "normal",
    "town": "Horsham",
    "unit": "mASD"
  },
  {
    "id": "1480SO",
    "lastReading": "2026-04-08T11:00:00Z",
    "lat": 51.139335,
    "level": 44.415,
    "lon": 1.236398,
    "name": "Alkham Valley",
    "readings": 168,
    "river": "Groundwater Level",
    "status": "severe",
    "town": "",
    "unit": "mAOD"
  },
  {
    "id": "E12446",
    "lastReading": "2026-04-08T11:30:00Z",
    "lat": 50.990394,
    "level": 8.814,
    "lon": -1.33552,
    "name": "Allbrook and Highbridge Summed Flow",
    "readings": 671,
    "river": "Unknown",
    "status": "severe",
    "town": "",
    "unit": "m3/s"
  },
  {
    "id": "023036",
    "lastReading": "2026-04-08T11:15:00Z",
    "lat": 54.904713,
    "level": 0.215,
    "lon": -2.265082,
    "name": "Allen Mill Bridge",
    "readings": 671,
    "river": "River East Allen",
    "status": "normal",
    "town": "Allendale Town",
    "unit": "m"
  },
  {
    "id": "E581",
    "lastReading": "2026-04-08T11:15:00Z",
    "lat": 51.291026,
    "level": 0.165,
    "lon": 0.511282,
    "name": "Allington Marina",
    "readings": 671,
    "river": "River Medway",
    "status": "normal",
    "town": "Sandling",
    "unit": "mASD"
  },
  {
    "id": "736417",
    "lastReading": "2026-04-08T11:30:00Z",
    "lat": 54.193218,
    "level": 0.116,
    "lon": -3.084524,
    "name": "Allotments",
    "readings": 671,
    "river": "Town Beck",
    "status": "normal",
    "town": "Ulverston",
    "unit": "m"
  },
  {
    "id": "023009",
    "lastReading": "2026-04-08T11:15:00Z",
    "lat": 54.812531,
    "level": 0.235,
    "lon": -2.443415,
    "name": "Alston",
    "readings": 671,
    "river": "River South Tyne",
    "status": "normal",
    "town": "Alston",
    "unit": "m"
  },
  {
    "id": "SU73_93",
    "lastReading": "2026-04-08T10:00:00Z",
    "lat": null,
    "level": 101.214,
    "lon": null,
    "name": "Alton Town OBH",
    "readings": 167,
    "river": "Unknown",
    "status": "offline",
    "town": "",
    "unit": "mAOD"
  },
  {
    "id": "3610SO",
    "lastReading": "2026-04-08T11:15:00Z",
    "lat": 50.667206,
    "level": 2.459,
    "lon": -1.184737,
    "name": "Alverstone",
    "readings": 671,
    "river": "Eastern Yar",
    "status": "severe",
    "town": "Alverstone",
    "unit": "mAOD"
  },
  {
    "id": "022014",
    "lastReading": "2026-04-08T05:45:00Z",
    "lat": 55.344803,
    "level": 0.259,
    "lon": -2.122952,
    "name": "Alwinton Bridge",
    "readings": 649,
    "river": "River Coquet",
    "status": "normal",
    "town": "Alwinton",
    "unit": "m"
  },
  {
    "id": "735019",
    "lastReading": "2026-04-08T11:30:00Z",
    "lat": 54.433747,
    "level": 0.187,
    "lon": -2.965717,
    "name": "Ambleside Rydal Road",
    "readings": 671,
    "river": "Stock Ghyll",
    "status": "normal",
    "town": "Ambleside",
    "unit": "m"
  },
  {
    "id": "E8330",
    "lastReading": "2026-04-08T11:00:00Z",
    "lat": 50.924994,
    "level": 6.56,
    "lon": 0.050081,
    "name": "Anchor Gates",
    "readings": 670,
    "river": "River Ouse",
    "status": "severe",
    "town": "Barcombe",
    "unit": "mAOD"
  },
  {
    "id": "E13860",
    "lastReading": "2026-04-08T11:00:00Z",
    "lat": 51.20755,
    "level": 56.429,
    "lon": -1.482278,
    "name": "Andover Town Mill",
    "readings": 670,
    "river": "River Anton",
    "status": "offline",
    "town": "Andover",
    "unit": "mAOD"
  },
  {
    "id": "4147",
    "lastReading": "2026-04-08T11:30:00Z",
    "lat": 52.839223,
    "level": 0.315,
    "lon": -1.665782,
    "name": "Anslow",
    "readings": 671,
    "river": "Rolleston Brook",
    "status": "normal",
    "town": "",
    "unit": "mASD"
  },
  {
    "id": "L1602",
    "lastReading": "2026-04-08T11:15:00Z",
    "lat": 53.837637,
    "level": 0.121,
    "lon": -1.706351,
    "name": "Apperley Bridge",
    "readings": 671,
    "river": "River Aire",
    "status": "normal",
    "town": "",
    "unit": "m"
  },
  {
    "id": "4087TH",
    "lastReading": "2026-04-08T11:15:00Z",
    "lat": 51.465498,
    "level": 0.073,
    "lon": -0.253664,
    "name": "Arabella Drive",
    "readings": 671,
    "river": "Unknown",
    "status": "normal",
    "town": "",
    "unit": "mASD"
  },
  {
    "id": "SU76_44",
    "lastReading": "2026-04-08T05:00:00Z",
    "lat": null,
    "level": 37.401,
    "lon": null,
    "name": "Arborfield OBH",
    "readings": 162,
    "river": "Unknown",
    "status": "severe",
    "town": "",
    "unit": "mAOD"
  },
  {
    "id": "E8266",
    "lastReading": "2026-04-08T11:00:00Z",
    "lat": 51.038451,
    "level": 0.119,
    "lon": -0.100268,
    "name": "Ardingly",
    "readings": 670,
    "river": "River Ouse",
    "status": "normal",
    "town": "Ardingly",
    "unit": "mASD"
  },
  {
    "id": "E22344",
    "lastReading": "2026-04-08T11:00:00Z",
    "lat": 52.026751,
    "level": 0.093,
    "lon": -0.266941,
    "name": "Arlesey",
    "readings": 670,
    "river": "River Hiz",
    "status": "normal",
    "town": "Arlesey",
    "unit": "m"
  },
  {
    "id": "2272",
    "lastReading": "2026-04-08T11:15:00Z",
    "lat": 51.863183,
    "level": 0.023,
    "lon": -2.221361,
    "name": "Armscroft Place",
    "readings": 671,
    "river": "Wotton Brook",
    "status": "normal",
    "town": "Gloucester",
    "unit": "mASD"
  },
  {
    "id": "710103",
    "lastReading": "2026-04-08T11:15:00Z",
    "lat": 53.996041,
    "level": 0.399,
    "lon": -2.247662,
    "name": "Arnford Weir",
    "readings": 671,
    "river": "River Ribble",
    "status": "normal",
    "town": "Arnford Weir",
    "unit": "m"
  },
  {
    "id": "4701",
    "lastReading": "2026-04-08T11:30:00Z",
    "lat": 52.735604,
    "level": 0.102,
    "lon": -1.469362,
    "name": "Ashby De La Zouch",
    "readings": 671,
    "river": "Gilwiskaw Brook",
    "status": "normal",
    "town": "Ashby De La Zouch",
    "unit": "mASD"
  },
  {
    "id": "45131",
    "lastReading": "2026-04-08T11:15:00Z",
    "lat": 50.776088,
    "level": 0.182,
    "lon": -3.403906,
    "name": "Ashclyst",
    "readings": 671,
    "river": "River Clyst",
    "status": "normal",
    "town": "Ashclyst",
    "unit": "m"
  },
  {
    "id": "SP90_64",
    "lastReading": "2026-04-08T10:30:00Z",
    "lat": null,
    "level": 125.214,
    "lon": null,
    "name": "Ashley Green STW OBH",
    "readings": 668,
    "river": "Unknown",
    "status": "offline",
    "town": "",
    "unit": "mAOD"
  },
  {
    "id": "43170",
    "lastReading": "2026-04-08T09:00:00Z",
    "lat": 50.95784,
    "level": 133.856,
    "lon": -2.13093,
    "name": "Ashmore",
    "readings": 662,
    "river": "Groundwater Level",
    "status": "offline",
    "town": "Ashmore",
    "unit": "mAOD"
  },
  {
    "id": "SU47_140",
    "lastReading": "2026-04-08T05:02:39Z",
    "lat": null,
    "level": 107.195,
    "lon": null,
    "name": "Ashridge Wood OBH",
    "readings": 169,
    "river": "Unknown",
    "status": "offline",
    "town": "",
    "unit": "mAOD"
  },
  {
    "id": "53184",
    "lastReading": "2026-04-08T11:15:00Z",
    "lat": 51.439017,
    "level": 1.009,
    "lon": -2.62578,
    "name": "Ashton Vale",
    "readings": 671,
    "river": "River Avon",
    "status": "alert",
    "town": "Leigh Woods",
    "unit": "mASD"
  },
  {
    "id": "E14540",
    "lastReading": "2026-04-08T11:15:00Z",
    "lat": 50.910849,
    "level": 3.734,
    "lon": -1.510651,
    "name": "Ashurst Bridge",
    "readings": 671,
    "river": "Bartley Water",
    "status": "severe",
    "town": "Ashurst Bridge",
    "unit": "mAOD"
  },
  {
    "id": "4124",
    "lastReading": "2026-04-08T11:15:00Z",
    "lat": 52.877141,
    "level": 0.8,
    "lon": -1.759128,
    "name": "Aston Bridge",
    "readings": 671,
    "river": "River Dove",
    "status": "normal",
    "town": "Sudbury",
    "unit": "mASD"
  },
  {
    "id": "SU09_165",
    "lastReading": "2026-04-08T07:00:00Z",
    "lat": null,
    "level": 82.628,
    "lon": null,
    "name": "Aston Keynes OBH",
    "readings": 164,
    "river": "Unknown",
    "status": "offline",
    "town": "",
    "unit": "mAOD"
  },
  {
    "id": "4182",
    "lastReading": "2026-04-08T11:15:00Z",
    "lat": 52.817973,
    "level": 0.207,
    "lon": -2.113758,
    "name": "Astonfields",
    "readings": 671,
    "river": "Sandyford Brook",
    "status": "normal",
    "town": "",
    "unit": "mASD"
  },
  {
    "id": "E14741",
    "lastReading": "2026-04-08T11:30:00Z",
    "lat": 50.61912,
    "level": 0.266,
    "lon": -1.353938,
    "name": "Atherfield",
    "readings": 671,
    "river": "Atherfield Brook",
    "status": "normal",
    "town": "Atherfield",
    "unit": "mASD"
  },
  {
    "id": "693012",
    "lastReading": "2026-04-08T11:30:00Z",
    "lat": 53.516028,
    "level": 0.088,
    "lon": -2.473734,
    "name": "Atherton Shakerley Road",
    "readings": 671,
    "river": "Shakerley Brook",
    "status": "normal",
    "town": "Atherton",
    "unit": "m"
  },
  {
    "id": "693013",
    "lastReading": "2026-04-08T11:30:00Z",
    "lat": 53.534764,
    "level": 0.113,
    "lon": -2.477157,
    "name": "Atherton Woodland Drive",
    "readings": 671,
    "river": "Carr Brook",
    "status": "normal",
    "town": "Atherton",
    "unit": "m"
  },
  {
    "id": "692810",
    "lastReading": "2026-04-08T11:15:00Z",
    "lat": 53.439852,
    "level": 0.045,
    "lon": -2.246761,
    "name": "Athol Road",
    "readings": 671,
    "river": "Unknown",
    "status": "normal",
    "town": "",
    "unit": "m"
  },
  {
    "id": "E72624",
    "lastReading": "2026-04-08T11:00:00Z",
    "lat": 51.50291,
    "level": 10.312,
    "lon": -2.6988,
    "name": "Avonmouth Portbury",
    "readings": 593,
    "river": "Unknown",
    "status": "severe",
    "town": "",
    "unit": "m"
  },
  {
    "id": "E72639",
    "lastReading": "2026-04-08T11:00:00Z",
    "lat": 51.49999,
    "level": 3.812,
    "lon": -2.728468,
    "name": "Avonmouth Portbury",
    "readings": 593,
    "river": "Tide",
    "status": "severe",
    "town": "Avonmouth",
    "unit": "mAOD"
  },
  {
    "id": "E81939",
    "lastReading": "2026-04-08T06:00:00Z",
    "lat": 50.788575,
    "level": 0.133,
    "lon": -2.995254,
    "name": "Axminster Wilhay Lane",
    "readings": 649,
    "river": "Mill Brook",
    "status": "normal",
    "town": "",
    "unit": "m"
  },
  {
    "id": "1925TH",
    "lastReading": "2026-04-08T11:15:00Z",
    "lat": 51.817792,
    "level": 1.112,
    "lon": -0.801624,
    "name": "Aylesbury",
    "readings": 671,
    "river": "Bear Brook",
    "status": "alert",
    "town": "Aylesbury",
    "unit": "mASD"
  },
  {
    "id": "E4412",
    "lastReading": "2026-04-08T11:11:41Z",
    "lat": 51.133674,
    "level": 0.951,
    "lon": 0.880127,
    "name": "Aylesford Stream",
    "readings": 1321,
    "river": "Old Mill Stream",
    "status": "normal",
    "town": "Park Farm",
    "unit": "mASD"
  },
  {
    "id": "0095SE",
    "lastReading": "2026-04-08T11:30:00Z",
    "lat": 51.305709,
    "level": 0.161,
    "lon": 0.484894,
    "name": "Aylesford Stream Medway GS",
    "readings": 671,
    "river": "Unknown",
    "status": "normal",
    "town": "",
    "unit": "mAOD"
  },
  {
    "id": "E21412",
    "lastReading": "2026-04-08T11:15:00Z",
    "lat": 52.131206,
    "level": 0.21,
    "lon": 0.205231,
    "name": "BABRAHAM GS",
    "readings": 670,
    "river": "Unknown",
    "status": "normal",
    "town": "",
    "unit": "m3/s"
  },
  {
    "id": "SD52_17A",
    "lastReading": "2026-04-08T05:00:00Z",
    "lat": null,
    "level": 18.963,
    "lon": null,
    "name": "BAE Systems",
    "readings": 162,
    "river": "Unknown",
    "status": "severe",
    "town": "",
    "unit": "m"
  },
  {
    "id": "444510",
    "lastReading": "2026-04-08T09:00:00Z",
    "lat": 50.687985,
    "level": 3.55,
    "lon": -2.123098,
    "name": "BAGGS MILL TO BE WITSD",
    "readings": 659,
    "river": "Unknown",
    "status": "severe",
    "town": "",
    "unit": "m3/s"
  },
  {
    "id": "E23983",
    "lastReading": "2026-04-08T10:00:00Z",
    "lat": 52.236107,
    "level": 3.85,
    "lon": 0.176171,
    "name": "BAITS BITE LOCK SLUICE AUTOMATION DUAL COMMS",
    "readings": 654,
    "river": "Unknown",
    "status": "severe",
    "town": "",
    "unit": "m"
  },
  {
    "id": "E8653",
    "lastReading": "2026-04-08T11:30:00Z",
    "lat": 50.91529,
    "level": 1.765,
    "lon": 0.039283,
    "name": "BARCOMBE GATES RL",
    "readings": 671,
    "river": "Unknown",
    "status": "severe",
    "town": "",
    "unit": "m3/s"
  },
  {
    "id": "E22570",
    "lastReading": "2026-04-08T10:00:00Z",
    "lat": 52.04711,
    "level": 0.186,
    "lon": 0.693116,
    "name": "BARDFIELD BRIDGE FGS",
    "readings": 666,
    "river": "Unknown",
    "status": "normal",
    "town": "",
    "unit": "m"
  },
  {
    "id": "E22571",
    "lastReading": "2026-04-08T10:00:00Z",
    "lat": 52.04711,
    "level": 0.145,
    "lon": 0.693116,
    "name": "BARDFIELD BRIDGE FGS",
    "readings": 666,
    "river": "Unknown",
    "status": "normal",
    "town": "",
    "unit": "m3/s"
  },
  {
    "id": "43179",
    "lastReading": "2026-04-08T08:00:00Z",
    "lat": null,
    "level": 62.763,
    "lon": null,
    "name": "BARFORD CEMETERY GW DNP3 NEW",
    "readings": 657,
    "river": "Unknown",
    "status": "offline",
    "town": "",
    "unit": "mAOD"
  },
  {
    "id": "E24804",
    "lastReading": "2026-04-08T10:30:00Z",
    "lat": 52.625574,
    "level": 21.668,
    "lon": 1.064334,
    "name": "BARNHAM BROOM GS",
    "readings": 668,
    "river": "Unknown",
    "status": "severe",
    "town": "",
    "unit": "mAOD"
  },
  {
    "id": "Barstaple_Yeo_FC",
    "lastReading": "2026-04-08T08:00:00Z",
    "lat": 51.087045,
    "level": 3.7,
    "lon": -4.052625,
    "name": "BARNSTAPLE RALEIGH MEADOW",
    "readings": 657,
    "river": "Unknown",
    "status": "severe",
    "town": "",
    "unit": "mAOD"
  },
  {
    "id": "E4816",
    "lastReading": "2026-04-08T11:15:00Z",
    "lat": 52.442994,
    "level": 32.577,
    "lon": -0.457726,
    "name": "BARNWELL FSR WITS",
    "readings": 671,
    "river": "Unknown",
    "status": "severe",
    "town": "",
    "unit": "mAOD"
  },
  {
    "id": "E1001",
    "lastReading": "2026-04-08T11:30:00Z",
    "lat": 53.689194,
    "level": 1.96,
    "lon": -0.390535,
    "name": "BARROW HAVEN OUTFALL SLUICE",
    "readings": 670,
    "river": "Unknown",
    "status": "severe",
    "town": "",
    "unit": "mAOD"
  },
  {
    "id": "E3042",
    "lastReading": "2026-04-08T11:15:00Z",
    "lat": 52.588634,
    "level": 0.973,
    "lon": -0.601801,
    "name": "BARROWDEN GS",
    "readings": 671,
    "river": "Unknown",
    "status": "normal",
    "town": "",
    "unit": "m3/s"
  },
  {
    "id": "E1486",
    "lastReading": "2026-04-08T07:00:00Z",
    "lat": 51.40089,
    "level": 0.093,
    "lon": -2.344082,
    "name": "BATH LARKHALL ST SAVIOURS RD",
    "readings": 653,
    "river": "Unknown",
    "status": "normal",
    "town": "",
    "unit": "m"
  },
  {
    "id": "E22890",
    "lastReading": "2026-04-08T11:15:00Z",
    "lat": 51.737726,
    "level": 0.537,
    "lon": 0.446926,
    "name": "BEACHES MILL FGS GSM",
    "readings": 670,
    "river": "Unknown",
    "status": "normal",
    "town": "",
    "unit": "m3/s"
  },
  {
    "id": "E45951",
    "lastReading": "2026-04-08T11:15:00Z",
    "lat": 51.737726,
    "level": 0.321,
    "lon": 0.446926,
    "name": "BEACHES MILL SECONDARY GS GSM",
    "readings": 671,
    "river": "Unknown",
    "status": "normal",
    "town": "",
    "unit": "m"
  },
  {
    "id": "44150",
    "lastReading": "2026-04-08T11:15:00Z",
    "lat": 50.809858,
    "level": 0.073,
    "lon": -2.726377,
    "name": "BEAMINSTER FAS UPSTREAM RL WITS",
    "readings": 671,
    "river": "Unknown",
    "status": "normal",
    "town": "",
    "unit": "m"
  },
  {
    "id": "448115",
    "lastReading": "2026-04-08T11:30:00Z",
    "lat": 50.812857,
    "level": 0.14,
    "lon": -2.738489,
    "name": "BEAMINSTER THE ORCHARD RL",
    "readings": 671,
    "river": "Unknown",
    "status": "normal",
    "town": "",
    "unit": "m"
  },
  {
    "id": "E7441",
    "lastReading": "2026-04-08T11:15:00Z",
    "lat": 50.853942,
    "level": 1.221,
    "lon": 0.04918,
    "name": "BEDDINGHAM PS",
    "readings": 671,
    "river": "Unknown",
    "status": "alert",
    "town": "",
    "unit": "mAOD"
  },
  {
    "id": "E22596",
    "lastReading": "2026-04-08T11:15:00Z",
    "lat": 52.134213,
    "level": 24.999,
    "lon": -0.462378,
    "name": "BEDFORD GS",
    "readings": 671,
    "river": "Unknown",
    "status": "severe",
    "town": "",
    "unit": "mAOD"
  },
  {
    "id": "E1048",
    "lastReading": "2026-04-08T07:00:00Z",
    "lat": 52.134213,
    "level": 55.989,
    "lon": -0.462378,
    "name": "BEDFORD ROAD SLUICE NORTHAMPTON AUTOMATION",
    "readings": 641,
    "river": "Unknown",
    "status": "offline",
    "town": "",
    "unit": "mAOD"
  },
  {
    "id": "E65711",
    "lastReading": "2026-04-08T10:00:00Z",
    "lat": 52.228761,
    "level": 55.988,
    "lon": -0.866582,
    "name": "BEDFORD ROAD SLUICE NORTHAMPTON AUTOMATION",
    "readings": 664,
    "river": "Unknown",
    "status": "offline",
    "town": "",
    "unit": "mAOD"
  },
  {
    "id": "2308SO",
    "lastReading": "2026-04-08T11:00:00Z",
    "lat": null,
    "level": 66.858,
    "lon": null,
    "name": "BEEDING HILL GWL",
    "readings": 168,
    "river": "Unknown",
    "status": "offline",
    "town": "",
    "unit": "mAOD"
  },
  {
    "id": "E22300-southern",
    "lastReading": "2026-04-08T11:16:47Z",
    "lat": null,
    "level": 15.741,
    "lon": null,
    "name": "BEKESBOURNE HILL FARM GWL",
    "readings": 1316,
    "river": "Unknown",
    "status": "severe",
    "town": "",
    "unit": "mAOD"
  },
  {
    "id": "E8731",
    "lastReading": "2026-04-08T11:30:00Z",
    "lat": 50.869751,
    "level": 4.666,
    "lon": 4.3e-05,
    "name": "BELL LANE GRILL RL",
    "readings": 671,
    "river": "Unknown",
    "status": "severe",
    "town": "",
    "unit": "mAOD"
  },
  {
    "id": "E2835",
    "lastReading": "2026-04-08T11:15:00Z",
    "lat": 52.681277,
    "level": 0.174,
    "lon": -0.460086,
    "name": "BELMESTHORPE GS GSM",
    "readings": 671,
    "river": "Unknown",
    "status": "normal",
    "town": "",
    "unit": "mASD"
  },
  {
    "id": "E3043",
    "lastReading": "2026-04-08T11:15:00Z",
    "lat": 52.681277,
    "level": 1.145,
    "lon": -0.460086,
    "name": "BELMESTHORPE GS GSM",
    "readings": 671,
    "river": "Unknown",
    "status": "alert",
    "town": "",
    "unit": "m3/s"
  },
  {
    "id": "E14992",
    "lastReading": "2026-04-08T11:15:00Z",
    "lat": 50.693188,
    "level": -0.018,
    "lon": -1.108712,
    "name": "BEMBRIDGE GATES TL",
    "readings": 671,
    "river": "Unknown",
    "status": "normal",
    "town": "",
    "unit": "mAOD"
  },
  {
    "id": "E21022",
    "lastReading": "2026-04-08T11:15:00Z",
    "lat": 52.202693,
    "level": 0.087,
    "lon": 1.49185,
    "name": "BENHALL BRIDGE GS",
    "readings": 670,
    "river": "Unknown",
    "status": "normal",
    "town": "",
    "unit": "mASD"
  },
  {
    "id": "E23028",
    "lastReading": "2026-04-08T11:15:00Z",
    "lat": 52.172121,
    "level": 0.201,
    "lon": 1.449999,
    "name": "BEVERSHAM GS",
    "readings": 671,
    "river": "Unknown",
    "status": "normal",
    "town": "",
    "unit": "m"
  },
  {
    "id": "E1932",
    "lastReading": "2026-04-08T11:15:00Z",
    "lat": 51.087041,
    "level": 0.109,
    "lon": 0.406879,
    "name": "BEWL BRIDGE GS",
    "readings": 670,
    "river": "Unknown",
    "status": "normal",
    "town": "",
    "unit": "m3/s"
  },
  {
    "id": "NY53_51",
    "lastReading": "2026-04-08T07:00:00Z",
    "lat": null,
    "level": 4.18,
    "lon": null,
    "name": "BGS EV2",
    "readings": 164,
    "river": "Unknown",
    "status": "severe",
    "town": "",
    "unit": "m"
  },
  {
    "id": "0657TH",
    "lastReading": "2026-04-08T10:00:00Z",
    "lat": 51.761248,
    "level": 0.109,
    "lon": -1.835566,
    "name": "BIBURY SPRINGS AT BIBURY (SWAN HOTEL)",
    "readings": 666,
    "river": "Unknown",
    "status": "normal",
    "town": "",
    "unit": "mASD"
  },
  {
    "id": "0655TH",
    "lastReading": "2026-04-08T10:00:00Z",
    "lat": 51.761338,
    "level": 0.16,
    "lon": -1.835711,
    "name": "BIBURY SPRINGS AT BIBURY (TROUT FARM)",
    "readings": 666,
    "river": "Unknown",
    "status": "normal",
    "town": "",
    "unit": "mASD"
  },
  {
    "id": "E1005",
    "lastReading": "2026-04-08T11:00:00Z",
    "lat": 52.242084,
    "level": 51.056,
    "lon": -0.810734,
    "name": "BILLING LOCK WITS",
    "readings": 670,
    "river": "Unknown",
    "status": "offline",
    "town": "",
    "unit": "mAOD"
  },
  {
    "id": "E1491",
    "lastReading": "2026-04-08T11:15:00Z",
    "lat": 53.268103,
    "level": 0.139,
    "lon": 0.197262,
    "name": "BILSBY GS WITS",
    "readings": 670,
    "river": "Unknown",
    "status": "normal",
    "town": "",
    "unit": "mASD"
  },
  {
    "id": "E21726",
    "lastReading": "2026-04-08T11:15:00Z",
    "lat": 52.779213,
    "level": 25.884,
    "lon": 0.961997,
    "name": "BINTREE MILL SLUICE",
    "readings": 671,
    "river": "Unknown",
    "status": "severe",
    "town": "",
    "unit": "mAOD"
  },
  {
    "id": "E1534",
    "lastReading": "2026-04-08T11:15:00Z",
    "lat": 53.406544,
    "level": 0.113,
    "lon": -0.449815,
    "name": "BISHOPBRIDGE R ANCHOLME GS",
    "readings": 670,
    "river": "Unknown",
    "status": "normal",
    "town": "",
    "unit": "m"
  },
  {
    "id": "E6204",
    "lastReading": "2026-04-08T11:30:00Z",
    "lat": 53.4179,
    "level": 0.803,
    "lon": 0.189072,
    "name": "BLACK GOWT OUTFALL SALTFLEET WITS",
    "readings": 671,
    "river": "Unknown",
    "status": "normal",
    "town": "",
    "unit": "mAOD"
  },
  {
    "id": "E3530",
    "lastReading": "2026-04-08T11:15:00Z",
    "lat": null,
    "level": 0.564,
    "lon": null,
    "name": "BLACK SLUICE PS",
    "readings": 670,
    "river": "Unknown",
    "status": "normal",
    "town": "",
    "unit": "mAOD"
  },
  {
    "id": "E1436",
    "lastReading": "2026-04-08T10:00:00Z",
    "lat": 52.967102,
    "level": -0.007,
    "lon": -0.026238,
    "name": "BLACK SLUICE PS BOSTON",
    "readings": 665,
    "river": "Unknown",
    "status": "normal",
    "town": "",
    "unit": "mAOD"
  },
  {
    "id": "E14750",
    "lastReading": "2026-04-08T11:30:00Z",
    "lat": 50.675611,
    "level": 13.853,
    "lon": -1.28567,
    "name": "BLACKWATER GS",
    "readings": 671,
    "river": "Unknown",
    "status": "severe",
    "town": "",
    "unit": "mAOD"
  },
  {
    "id": "E14752",
    "lastReading": "2026-04-08T11:30:00Z",
    "lat": 50.675611,
    "level": 0.204,
    "lon": -1.28567,
    "name": "BLACKWATER GS",
    "readings": 671,
    "river": "Unknown",
    "status": "normal",
    "town": "",
    "unit": "m3/s"
  },
  {
    "id": "434313",
    "lastReading": "2026-04-08T11:30:00Z",
    "lat": 50.855587,
    "level": 0.129,
    "lon": -2.16079,
    "name": "BLANDFORD LANGTON MEADOWS",
    "readings": 671,
    "river": "Unknown",
    "status": "normal",
    "town": "",
    "unit": "m"
  },
  {
    "id": "E21648",
    "lastReading": "2026-04-08T10:00:00Z",
    "lat": 52.144561,
    "level": 2.678,
    "lon": -0.316796,
    "name": "BLUNHAM GS",
    "readings": 666,
    "river": "Unknown",
    "status": "severe",
    "town": "",
    "unit": "m3/s"
  },
  {
    "id": "SD43_38",
    "lastReading": "2026-04-08T07:00:00Z",
    "lat": null,
    "level": 11.728,
    "lon": null,
    "name": "BNFL Springfields",
    "readings": 164,
    "river": "Unknown",
    "status": "severe",
    "town": "",
    "unit": "m"
  },
  {
    "id": "49152",
    "lastReading": "2026-04-08T11:15:00Z",
    "lat": 50.471699,
    "level": 0.074,
    "lon": -4.718637,
    "name": "BODMIN CROCKWELL STREET",
    "readings": 671,
    "river": "Unknown",
    "status": "normal",
    "town": "",
    "unit": "m"
  },
  {
    "id": "49167",
    "lastReading": "2026-04-08T11:15:00Z",
    "lat": 50.46745,
    "level": 0.057,
    "lon": -4.708401,
    "name": "BODMIN CUMMINGS GARAGE",
    "readings": 670,
    "river": "Unknown",
    "status": "normal",
    "town": "",
    "unit": "m"
  },
  {
    "id": "49169",
    "lastReading": "2026-04-08T04:15:00Z",
    "lat": 50.475136,
    "level": 0.148,
    "lon": -4.726699,
    "name": "BODMIN FLAXMOOR TERRACE",
    "readings": 642,
    "river": "Unknown",
    "status": "normal",
    "town": "",
    "unit": "m"
  },
  {
    "id": "49114",
    "lastReading": "2026-04-08T11:00:00Z",
    "lat": 50.470264,
    "level": 0.374,
    "lon": -4.716144,
    "name": "BODMIN PRIORY POND",
    "readings": 670,
    "river": "Unknown",
    "status": "normal",
    "town": "",
    "unit": "m"
  },
  {
    "id": "E7100",
    "lastReading": "2026-04-08T11:30:00Z",
    "lat": null,
    "level": 0.335,
    "lon": null,
    "name": "BOREHAM BRIDGE GS",
    "readings": 671,
    "river": "Unknown",
    "status": "normal",
    "town": "",
    "unit": "m3/s"
  },
  {
    "id": "E12552",
    "lastReading": "2026-04-08T11:15:00Z",
    "lat": 51.088542,
    "level": 0.965,
    "lon": -1.188235,
    "name": "BOROUGH BRIDGE GS",
    "readings": 671,
    "river": "Unknown",
    "status": "normal",
    "town": "",
    "unit": "m3/s"
  },
  {
    "id": "48111",
    "lastReading": "2026-04-08T11:15:00Z",
    "lat": 50.343417,
    "level": 0.375,
    "lon": -4.749042,
    "name": "BOSCUNDLE",
    "readings": 671,
    "river": "Unknown",
    "status": "normal",
    "town": "",
    "unit": "m"
  },
  {
    "id": "E13301",
    "lastReading": "2026-04-08T11:00:00Z",
    "lat": 51.080498,
    "level": 0.342,
    "lon": -1.523854,
    "name": "BOSSINGTON GS",
    "readings": 670,
    "river": "Unknown",
    "status": "normal",
    "town": "",
    "unit": "mASD"
  },
  {
    "id": "E68651",
    "lastReading": "2026-04-08T11:30:00Z",
    "lat": 52.966495,
    "level": 1.176,
    "lon": -0.023228,
    "name": "BOSTON BARRIER WITS",
    "readings": 671,
    "river": "Unknown",
    "status": "alert",
    "town": "",
    "unit": "mAOD"
  },
  {
    "id": "E1427",
    "lastReading": "2026-04-08T11:15:00Z",
    "lat": 52.981286,
    "level": 1.494,
    "lon": -0.029852,
    "name": "BOSTON GRAND SLUICE AUTOMATION",
    "readings": 669,
    "river": "Unknown",
    "status": "alert",
    "town": "",
    "unit": "mAOD"
  },
  {
    "id": "E1460",
    "lastReading": "2026-04-08T11:15:00Z",
    "lat": 52.981286,
    "level": 1.458,
    "lon": -0.029852,
    "name": "BOSTON GRAND SLUICE AUTOMATION",
    "readings": 668,
    "river": "Unknown",
    "status": "alert",
    "town": "",
    "unit": "mAOD"
  },
  {
    "id": "E21026",
    "lastReading": "2026-04-08T11:15:00Z",
    "lat": 52.269652,
    "level": 1.676,
    "lon": 0.212141,
    "name": "BOTTISHAM PS WITS",
    "readings": 670,
    "river": "Unknown",
    "status": "severe",
    "town": "",
    "unit": "mASD"
  },
  {
    "id": "E61301",
    "lastReading": "2026-04-08T10:00:00Z",
    "lat": 52.268767,
    "level": 2.61,
    "lon": 0.208506,
    "name": "BOTTISHAM SLUICE AUTOMATION",
    "readings": 665,
    "river": "Unknown",
    "status": "severe",
    "town": "",
    "unit": "mAOD"
  },
  {
    "id": "SU57_153",
    "lastReading": "2026-04-08T05:00:00Z",
    "lat": null,
    "level": 92.925,
    "lon": null,
    "name": "BOTTOM BARN OBH",
    "readings": 162,
    "river": "Unknown",
    "status": "offline",
    "town": "",
    "unit": "mAOD"
  },
  {
    "id": "E23014",
    "lastReading": "2026-04-08T10:02:36Z",
    "lat": 51.847787,
    "level": 0.158,
    "lon": 0.880496,
    "name": "BOUNSTEAD BRIDGE FGS COLCHESTER",
    "readings": 670,
    "river": "Unknown",
    "status": "normal",
    "town": "",
    "unit": "m"
  },
  {
    "id": "E23015",
    "lastReading": "2026-04-08T10:00:00Z",
    "lat": 51.847787,
    "level": 0.252,
    "lon": 0.880496,
    "name": "BOUNSTEAD BRIDGE FGS COLCHESTER",
    "readings": 665,
    "river": "Unknown",
    "status": "normal",
    "town": "",
    "unit": "m3/s"
  },
  {
    "id": "E1957",
    "lastReading": "2026-04-08T11:00:00Z",
    "lat": 52.754349,
    "level": 2.849,
    "lon": -0.28934,
    "name": "BOURNE EAU PS WITS",
    "readings": 670,
    "river": "Unknown",
    "status": "severe",
    "town": "",
    "unit": "mAOD"
  },
  {
    "id": "46134",
    "lastReading": "2026-04-08T11:00:00Z",
    "lat": 50.595603,
    "level": 1.425,
    "lon": -3.682853,
    "name": "BOVEY PARKE",
    "readings": 670,
    "river": "Unknown",
    "status": "alert",
    "town": "",
    "unit": "m3/s"
  },
  {
    "id": "E4819",
    "lastReading": "2026-04-08T11:15:00Z",
    "lat": 52.219214,
    "level": 80.333,
    "lon": -0.669482,
    "name": "BOZEAT FSR WITS",
    "readings": 671,
    "river": "Unknown",
    "status": "offline",
    "town": "",
    "unit": "mAOD"
  },
  {
    "id": "50104",
    "lastReading": "2026-04-08T11:00:00Z",
    "lat": 51.090417,
    "level": 6.039,
    "lon": -4.069497,
    "name": "BRADIFORD",
    "readings": 669,
    "river": "Unknown",
    "status": "severe",
    "town": "",
    "unit": "m"
  },
  {
    "id": "E23042",
    "lastReading": "2026-04-08T11:15:00Z",
    "lat": 52.075981,
    "level": 0.63,
    "lon": 1.10243,
    "name": "BRAMFORD FGS",
    "readings": 670,
    "river": "Unknown",
    "status": "normal",
    "town": "",
    "unit": "mASD"
  },
  {
    "id": "E24492",
    "lastReading": "2026-04-08T11:15:00Z",
    "lat": 52.330546,
    "level": 0.103,
    "lon": -0.228322,
    "name": "BRAMPTON RACECOURSE GS",
    "readings": 670,
    "river": "Unknown",
    "status": "normal",
    "town": "",
    "unit": "m3/s"
  },
  {
    "id": "E23774",
    "lastReading": "2026-04-08T10:15:00Z",
    "lat": 52.320084,
    "level": 10.025,
    "lon": -0.205967,
    "name": "BRAMPTON SLUICE AUTOMATION",
    "readings": 657,
    "river": "Unknown",
    "status": "severe",
    "town": "",
    "unit": "mAOD"
  },
  {
    "id": "E700",
    "lastReading": "2026-04-08T11:15:00Z",
    "lat": 51.207227,
    "level": 12.778,
    "lon": 0.390032,
    "name": "BRANBRIDGES RL",
    "readings": 671,
    "river": "Unknown",
    "status": "severe",
    "town": "",
    "unit": "mAOD"
  },
  {
    "id": "E13850",
    "lastReading": "2026-04-08T11:00:00Z",
    "lat": 51.177927,
    "level": 1.536,
    "lon": -1.396961,
    "name": "BRANSBURY USGS",
    "readings": 670,
    "river": "Unknown",
    "status": "severe",
    "town": "",
    "unit": "m3/s"
  },
  {
    "id": "E4849",
    "lastReading": "2026-04-08T10:04:45Z",
    "lat": 53.298307,
    "level": 4.3,
    "lon": -0.64444,
    "name": "BRANSBY CATCHWATER PS GSM",
    "readings": 693,
    "river": "Unknown",
    "status": "severe",
    "town": "",
    "unit": "mAOD"
  },
  {
    "id": "E45802",
    "lastReading": "2026-04-08T11:15:00Z",
    "lat": 53.224322,
    "level": 0.659,
    "lon": -0.369386,
    "name": "BRANSTON DELPH PENSTOCK GSM",
    "readings": 670,
    "river": "Unknown",
    "status": "normal",
    "town": "",
    "unit": "mAOD"
  },
  {
    "id": "E4858",
    "lastReading": "2026-04-08T10:00:00Z",
    "lat": 53.208965,
    "level": 2.759,
    "lon": -0.412526,
    "name": "BRANSTON DELPH SLUICE",
    "readings": 664,
    "river": "Unknown",
    "status": "severe",
    "town": "",
    "unit": "mAOD"
  },
  {
    "id": "E65001",
    "lastReading": "2026-04-08T10:09:50Z",
    "lat": 53.218281,
    "level": 1.5,
    "lon": -0.347898,
    "name": "BRANSTON ISLAND SLUICE AUTOMATION GSM DUAL COMMS",
    "readings": 148,
    "river": "Unknown",
    "status": "severe",
    "town": "",
    "unit": "mAOD"
  },
  {
    "id": "E3012",
    "lastReading": "2026-04-08T11:15:00Z",
    "lat": 53.08037,
    "level": 0.078,
    "lon": -0.61448,
    "name": "BRANT BROUGHTON GS",
    "readings": 671,
    "river": "Unknown",
    "status": "normal",
    "town": "",
    "unit": "m3/s"
  },
  {
    "id": "E68200",
    "lastReading": "2026-04-08T11:30:00Z",
    "lat": 53.151141,
    "level": 4.43,
    "lon": -0.583477,
    "name": "BRANT CONTROL SLUICE AUBOURN WITS",
    "readings": 671,
    "river": "Unknown",
    "status": "severe",
    "town": "",
    "unit": "mAOD"
  },
  {
    "id": "E1597",
    "lastReading": "2026-04-08T11:15:00Z",
    "lat": 53.157991,
    "level": 1.553,
    "lon": 0.217825,
    "name": "BRATOFT ROAD BRIDGE GS WITS",
    "readings": 670,
    "river": "Unknown",
    "status": "severe",
    "town": "",
    "unit": "mAOD"
  },
  {
    "id": "E6150",
    "lastReading": "2026-04-08T11:15:00Z",
    "lat": 50.930687,
    "level": 2.779,
    "lon": 0.579348,
    "name": "BREDE GS",
    "readings": 671,
    "river": "Unknown",
    "status": "severe",
    "town": "",
    "unit": "mAOD"
  },
  {
    "id": "E6154",
    "lastReading": "2026-04-08T11:30:00Z",
    "lat": null,
    "level": 1.143,
    "lon": null,
    "name": "BREDE GS",
    "readings": 671,
    "river": "Unknown",
    "status": "alert",
    "town": "",
    "unit": "m3/s"
  },
  {
    "id": "1610SO",
    "lastReading": "2026-04-08T11:30:00Z",
    "lat": 50.930687,
    "level": 1.186,
    "lon": 0.579348,
    "name": "BREDE SLUICE RL",
    "readings": 671,
    "river": "Unknown",
    "status": "alert",
    "town": "",
    "unit": "mAOD"
  },
  {
    "id": "448301",
    "lastReading": "2026-04-08T11:30:00Z",
    "lat": 50.732016,
    "level": 0.606,
    "lon": -2.752023,
    "name": "BRIDPORT EAST BRIDGE",
    "readings": 671,
    "river": "Unknown",
    "status": "normal",
    "town": "",
    "unit": "m3/s"
  },
  {
    "id": "44108",
    "lastReading": "2026-04-08T11:15:00Z",
    "lat": 50.735508,
    "level": -0.001,
    "lon": -2.761347,
    "name": "BRIDPORT GUNDRY UPSTREAM",
    "readings": 671,
    "river": "Unknown",
    "status": "normal",
    "town": "",
    "unit": "m"
  },
  {
    "id": "44141",
    "lastReading": "2026-04-08T11:15:00Z",
    "lat": 50.732776,
    "level": 0.367,
    "lon": -2.766602,
    "name": "BRIDPORT MAGDALEN LANE WITS",
    "readings": 658,
    "river": "Unknown",
    "status": "normal",
    "town": "",
    "unit": "m"
  },
  {
    "id": "44142",
    "lastReading": "2026-04-08T11:15:00Z",
    "lat": 50.732776,
    "level": 0.119,
    "lon": -2.766602,
    "name": "BRIDPORT MAGDALEN LANE WITS",
    "readings": 658,
    "river": "Unknown",
    "status": "normal",
    "town": "",
    "unit": "m3/s"
  },
  {
    "id": "53189",
    "lastReading": "2026-04-08T11:15:00Z",
    "lat": 51.446249,
    "level": 3.617,
    "lon": -2.616828,
    "name": "BRISTOL HARBOUR",
    "readings": 671,
    "river": "Unknown",
    "status": "severe",
    "town": "",
    "unit": "mAOD"
  },
  {
    "id": "E2534",
    "lastReading": "2026-04-08T11:30:00Z",
    "lat": 51.452001,
    "level": 4.526,
    "lon": -2.554418,
    "name": "BRISTOL NETHAM LOCK",
    "readings": 671,
    "river": "Unknown",
    "status": "severe",
    "town": "",
    "unit": "m3/s"
  },
  {
    "id": "E2539",
    "lastReading": "2026-04-08T11:30:00Z",
    "lat": 51.452001,
    "level": null,
    "lon": -2.554418,
    "name": "BRISTOL NETHAM LOCK",
    "readings": 671,
    "river": "Unknown",
    "status": "normal",
    "town": "",
    "unit": "m/s"
  },
  {
    "id": "E2540",
    "lastReading": "2026-04-08T11:30:00Z",
    "lat": 51.452001,
    "level": 0.707,
    "lon": -2.554418,
    "name": "BRISTOL NETHAM LOCK",
    "readings": 671,
    "river": "Unknown",
    "status": "normal",
    "town": "",
    "unit": "m/s"
  },
  {
    "id": "E30004",
    "lastReading": "2026-04-08T11:30:00Z",
    "lat": 51.459659,
    "level": 0.653,
    "lon": -2.581024,
    "name": "BRISTOL WADE STREET",
    "readings": 671,
    "river": "Unknown",
    "status": "normal",
    "town": "",
    "unit": "m3/s"
  },
  {
    "id": "E22519",
    "lastReading": "2026-04-08T11:15:00Z",
    "lat": 52.048992,
    "level": 0.04,
    "lon": 0.462076,
    "name": "BROAD GREEN GS GSM",
    "readings": 670,
    "river": "Unknown",
    "status": "normal",
    "town": "",
    "unit": "m3/s"
  },
  {
    "id": "E12290",
    "lastReading": "2026-04-08T11:10:47Z",
    "lat": null,
    "level": 48.96,
    "lon": null,
    "name": "BROADHALFPENNYDOWN GWL",
    "readings": 1319,
    "river": "Unknown",
    "status": "severe",
    "town": "",
    "unit": "mAOD"
  },
  {
    "id": "43180",
    "lastReading": "2026-04-08T10:45:00Z",
    "lat": null,
    "level": 78.528,
    "lon": null,
    "name": "BROADLEY WOOD DNP3",
    "readings": 668,
    "river": "Unknown",
    "status": "offline",
    "town": "",
    "unit": "m"
  },
  {
    "id": "E21404",
    "lastReading": "2026-04-08T11:15:00Z",
    "lat": 52.059596,
    "level": 0.085,
    "lon": -0.705838,
    "name": "BROUGHTON BROOK GS WITS DO NOT POLL",
    "readings": 670,
    "river": "Unknown",
    "status": "normal",
    "town": "",
    "unit": "m3/s"
  },
  {
    "id": "E4372",
    "lastReading": "2026-04-08T11:00:00Z",
    "lat": 51.172939,
    "level": 0.254,
    "lon": 0.800304,
    "name": "BROWN MILL USGS",
    "readings": 670,
    "river": "Unknown",
    "status": "normal",
    "town": "",
    "unit": "m3/s"
  },
  {
    "id": "E81910",
    "lastReading": "2026-04-08T11:00:00Z",
    "lat": 50.482427,
    "level": 0.499,
    "lon": -3.783081,
    "name": "BUCKFASTLEIGH HIGHER TOWN BRIDGE",
    "readings": 669,
    "river": "Unknown",
    "status": "normal",
    "town": "",
    "unit": "m"
  },
  {
    "id": "E14821",
    "lastReading": "2026-04-08T11:15:00Z",
    "lat": 51.088542,
    "level": 0.154,
    "lon": -1.188235,
    "name": "BUDBRIDGE GS",
    "readings": 671,
    "river": "Unknown",
    "status": "normal",
    "town": "",
    "unit": "mASD"
  },
  {
    "id": "E14822",
    "lastReading": "2026-04-08T11:30:00Z",
    "lat": 50.648948,
    "level": 0.144,
    "lon": -1.250005,
    "name": "BUDBRIDGE GS",
    "readings": 671,
    "river": "Unknown",
    "status": "normal",
    "town": "",
    "unit": "m3/s"
  },
  {
    "id": "E8560",
    "lastReading": "2026-04-08T11:30:00Z",
    "lat": 51.007923,
    "level": 0.279,
    "lon": -0.096141,
    "name": "BUILDER CENTRE GRILL",
    "readings": 671,
    "river": "Unknown",
    "status": "normal",
    "town": "",
    "unit": "mASD"
  },
  {
    "id": "E23361",
    "lastReading": "2026-04-08T11:00:00Z",
    "lat": 52.455936,
    "level": 3.844,
    "lon": 1.444145,
    "name": "BUNGAY SLUICE",
    "readings": 670,
    "river": "Unknown",
    "status": "severe",
    "town": "",
    "unit": "mAOD"
  },
  {
    "id": "E1029",
    "lastReading": "2026-04-08T10:15:00Z",
    "lat": 53.102208,
    "level": 2.148,
    "lon": 0.317091,
    "name": "BURGH SLUICE DOORS GIBRALTAR DUAL COMMS",
    "readings": 667,
    "river": "Unknown",
    "status": "severe",
    "town": "",
    "unit": "mAOD"
  },
  {
    "id": "E1030",
    "lastReading": "2026-04-08T10:15:00Z",
    "lat": 53.102208,
    "level": 1.877,
    "lon": 0.317091,
    "name": "BURGH SLUICE DOORS GIBRALTAR DUAL COMMS",
    "readings": 667,
    "river": "Unknown",
    "status": "severe",
    "town": "",
    "unit": "mAOD"
  },
  {
    "id": "E23056",
    "lastReading": "2026-04-08T11:15:00Z",
    "lat": 52.95094,
    "level": 0.321,
    "lon": 0.740391,
    "name": "BURNHAM GS NORFOLK",
    "readings": 670,
    "river": "Unknown",
    "status": "normal",
    "town": "",
    "unit": "m"
  },
  {
    "id": "E4874",
    "lastReading": "2026-04-08T11:15:00Z",
    "lat": null,
    "level": 10.596,
    "lon": null,
    "name": "BURNHAM HUMBERSIDE BOREHOLE",
    "readings": 671,
    "river": "Unknown",
    "status": "severe",
    "town": "",
    "unit": "mAOD"
  },
  {
    "id": "E14723",
    "lastReading": "2026-04-08T11:15:00Z",
    "lat": 50.664904,
    "level": 2.158,
    "lon": -1.17575,
    "name": "BURNT HOUSE GS",
    "readings": 671,
    "river": "Unknown",
    "status": "severe",
    "town": "",
    "unit": "m3/s"
  },
  {
    "id": "45174",
    "lastReading": "2026-04-08T11:15:00Z",
    "lat": null,
    "level": 15.592,
    "lon": null,
    "name": "BURROW BH",
    "readings": 670,
    "river": "Unknown",
    "status": "severe",
    "town": "",
    "unit": "m"
  },
  {
    "id": "E3004",
    "lastReading": "2026-04-08T11:15:00Z",
    "lat": 52.823606,
    "level": 0.013,
    "lon": -0.537027,
    "name": "BURTON COGGLES GS",
    "readings": 670,
    "river": "Unknown",
    "status": "normal",
    "town": "",
    "unit": "m3/s"
  },
  {
    "id": "45175",
    "lastReading": "2026-04-08T07:00:00Z",
    "lat": null,
    "level": 2.285,
    "lon": null,
    "name": "BUSSELLS 7A BH",
    "readings": 653,
    "river": "Unknown",
    "status": "severe",
    "town": "",
    "unit": "m"
  },
  {
    "id": "E3540",
    "lastReading": "2026-04-08T11:30:00Z",
    "lat": 51.286091,
    "level": 1.03,
    "lon": 1.325764,
    "name": "BUTTERFLY PS",
    "readings": 671,
    "river": "Unknown",
    "status": "alert",
    "town": "",
    "unit": "mAOD"
  },
  {
    "id": "E21005",
    "lastReading": "2026-04-08T11:15:00Z",
    "lat": 52.131206,
    "level": 0.128,
    "lon": 0.205231,
    "name": "Babraham",
    "readings": 670,
    "river": "River Granta",
    "status": "normal",
    "town": "Babraham",
    "unit": "m"
  },
  {
    "id": "43176",
    "lastReading": "2026-04-08T11:00:00Z",
    "lat": 50.819754,
    "level": 29.71,
    "lon": -2.049215,
    "name": "Badbury Rings",
    "readings": 670,
    "river": "Groundwater Level",
    "status": "severe",
    "town": "",
    "unit": "mAOD"
  },
  {
    "id": "2264TH",
    "lastReading": "2026-04-08T11:15:00Z",
    "lat": 51.422436,
    "level": 0.164,
    "lon": -1.350461,
    "name": "Bagnor",
    "readings": 671,
    "river": "Winterbourne Stream",
    "status": "normal",
    "town": "Bagnor",
    "unit": "mASD"
  },
  {
    "id": "SU46_7",
    "lastReading": "2026-04-08T05:00:00Z",
    "lat": null,
    "level": 84.569,
    "lon": null,
    "name": "Bagnor Manor OBH",
    "readings": 162,
    "river": "Unknown",
    "status": "offline",
    "town": "",
    "unit": "mAOD"
  },
  {
    "id": "L12013",
    "lastReading": "2026-04-08T11:30:00Z",
    "lat": 53.72267,
    "level": 0.053,
    "lon": -1.776636,
    "name": "Bailiff Bridge",
    "readings": 671,
    "river": "Clifton Beck",
    "status": "normal",
    "town": "Bailiff Bridge",
    "unit": "m"
  },
  {
    "id": "SU46_111",
    "lastReading": "2026-04-08T06:00:00Z",
    "lat": null,
    "level": 90.391,
    "lon": null,
    "name": "Ball Hill OBH",
    "readings": 163,
    "river": "Unknown",
    "status": "offline",
    "town": "",
    "unit": "mAOD"
  },
  {
    "id": "761260",
    "lastReading": "2026-04-08T11:15:00Z",
    "lat": 54.555577,
    "level": 0.375,
    "lon": -2.743431,
    "name": "Bampton Grange",
    "readings": 671,
    "river": "River Lowther",
    "status": "normal",
    "town": "Bampton Grange",
    "unit": "m"
  },
  {
    "id": "E73824",
    "lastReading": "2026-04-08T11:15:00Z",
    "lat": 54.66518,
    "level": 1.708,
    "lon": -5.67045,
    "name": "Bangor",
    "readings": 670,
    "river": "Unknown",
    "status": "severe",
    "town": "",
    "unit": "m"
  },
  {
    "id": "E73839",
    "lastReading": "2026-04-08T11:15:00Z",
    "lat": 54.66518,
    "level": -0.302,
    "lon": -5.67045,
    "name": "Bangor",
    "readings": 670,
    "river": "Unknown",
    "status": "normal",
    "town": "",
    "unit": "mAOD"
  },
  {
    "id": "44243",
    "lastReading": "2026-04-08T09:00:00Z",
    "lat": 50.665692,
    "level": 50.343,
    "lon": -2.422525,
    "name": "Bank Barrow",
    "readings": 662,
    "river": "Groundwater Level",
    "status": "offline",
    "town": "Bank Barrow",
    "unit": "mAOD"
  },
  {
    "id": "26114",
    "lastReading": "2026-04-08T11:00:00Z",
    "lat": null,
    "level": 14.17,
    "lon": null,
    "name": "Bank House ABH",
    "readings": 168,
    "river": "Unknown",
    "status": "severe",
    "town": "",
    "unit": "mBDAT"
  },
  {
    "id": "50123",
    "lastReading": "2026-04-08T11:00:00Z",
    "lat": 51.213836,
    "level": 0.165,
    "lon": -3.841064,
    "name": "Barbrook Bridge",
    "readings": 670,
    "river": "West Lyn River",
    "status": "normal",
    "town": "Barbrook",
    "unit": "m"
  },
  {
    "id": "E8371",
    "lastReading": "2026-04-08T11:00:00Z",
    "lat": 50.915549,
    "level": 2.806,
    "lon": 0.037303,
    "name": "Barcombe",
    "readings": 670,
    "river": "River Ouse",
    "status": "severe",
    "town": "Barcombe",
    "unit": "mAOD"
  },
  {
    "id": "E8654",
    "lastReading": "2026-04-08T11:15:00Z",
    "lat": 50.91492,
    "level": 5.435,
    "lon": 0.038854,
    "name": "Barcombe Gates",
    "readings": 671,
    "river": "River Ouse",
    "status": "severe",
    "town": "Barcombe",
    "unit": "mASD"
  },
  {
    "id": "E40411",
    "lastReading": "2026-04-08T10:00:00Z",
    "lat": 53.213749,
    "level": 0.799,
    "lon": -0.345212,
    "name": "Bardney",
    "readings": 666,
    "river": "River Witham",
    "status": "normal",
    "town": "Bardney",
    "unit": "mAOD"
  },
  {
    "id": "E2900-anglian",
    "lastReading": "2026-04-08T11:15:00Z",
    "lat": 53.213742,
    "level": 0.091,
    "lon": -0.55188,
    "name": "Bargate Weir",
    "readings": 675,
    "river": "River Witham",
    "status": "normal",
    "town": "Boultham",
    "unit": "mASD"
  },
  {
    "id": "BB_EAST_UR",
    "lastReading": "2026-04-08T11:15:00Z",
    "lat": 51.515594,
    "level": -1.809,
    "lon": 0.097044,
    "name": "Barking Barrier",
    "readings": 671,
    "river": "Unknown",
    "status": "normal",
    "town": "",
    "unit": "mAOD"
  },
  {
    "id": "BB_WEST_UR",
    "lastReading": "2026-04-08T11:15:00Z",
    "lat": 51.515594,
    "level": -1.601,
    "lon": 0.097044,
    "name": "Barking Barrier",
    "readings": 671,
    "river": "Unknown",
    "status": "normal",
    "town": "",
    "unit": "mAOD"
  },
  {
    "id": "BB_EAST_DR",
    "lastReading": "2026-04-08T11:15:00Z",
    "lat": 51.515594,
    "level": -1.605,
    "lon": 0.097044,
    "name": "Barking Barrierr",
    "readings": 671,
    "river": "Unknown",
    "status": "normal",
    "town": "",
    "unit": "mAOD"
  },
  {
    "id": "L2400",
    "lastReading": "2026-04-08T11:15:00Z",
    "lat": 53.749583,
    "level": 2.927,
    "lon": -0.969265,
    "name": "Barmby",
    "readings": 671,
    "river": "Unknown",
    "status": "severe",
    "town": "",
    "unit": "mAOD"
  },
  {
    "id": "L2801",
    "lastReading": "2026-04-08T11:15:00Z",
    "lat": 53.74959,
    "level": 2.178,
    "lon": -0.969053,
    "name": "Barmby",
    "readings": 671,
    "river": "River Derwent",
    "status": "severe",
    "town": "Barmby Barrage Upstream",
    "unit": "---"
  },
  {
    "id": "E73224",
    "lastReading": "2026-04-08T11:15:00Z",
    "lat": 52.71931,
    "level": 3.758,
    "lon": -4.04503,
    "name": "Barmouth",
    "readings": 607,
    "river": "Unknown",
    "status": "severe",
    "town": "",
    "unit": "m"
  },
  {
    "id": "E73239",
    "lastReading": "2026-04-08T11:15:00Z",
    "lat": 52.71931,
    "level": 1.318,
    "lon": -4.04503,
    "name": "Barmouth",
    "readings": 607,
    "river": "Unknown",
    "status": "alert",
    "town": "",
    "unit": "mAOD"
  },
  {
    "id": "E10924",
    "lastReading": "2026-04-08T11:15:00Z",
    "lat": 50.831182,
    "level": 1.66,
    "lon": -0.638259,
    "name": "Barnham",
    "readings": 671,
    "river": "Barnham Rife",
    "status": "severe",
    "town": "Barnham",
    "unit": "mAOD"
  },
  {
    "id": "F0806",
    "lastReading": "2026-04-08T11:15:00Z",
    "lat": 53.560696,
    "level": 0.27,
    "lon": -1.473078,
    "name": "Barnsley",
    "readings": 671,
    "river": "River Dearne",
    "status": "normal",
    "town": "Barnsley",
    "unit": "m"
  },
  {
    "id": "50198",
    "lastReading": "2026-04-08T11:15:00Z",
    "lat": 51.080046,
    "level": 1.664,
    "lon": -4.064537,
    "name": "Barnstaple",
    "readings": 671,
    "river": "River Taw",
    "status": "severe",
    "town": "Barnstaple",
    "unit": "mAOD"
  },
  {
    "id": "NY54_56",
    "lastReading": "2026-04-08T07:00:00Z",
    "lat": null,
    "level": 44.804,
    "lon": null,
    "name": "Baronwood",
    "readings": 164,
    "river": "Unknown",
    "status": "severe",
    "town": "",
    "unit": "m"
  },
  {
    "id": "SJ45_168",
    "lastReading": "2026-04-08T07:00:00Z",
    "lat": null,
    "level": 0.619,
    "lon": null,
    "name": "Barton 2 Obs",
    "readings": 164,
    "river": "Unknown",
    "status": "normal",
    "town": "",
    "unit": "m"
  },
  {
    "id": "E21563",
    "lastReading": "2026-04-08T11:15:00Z",
    "lat": 52.735281,
    "level": 0.378,
    "lon": 1.480458,
    "name": "Barton Broad",
    "readings": 671,
    "river": "River Ant",
    "status": "normal",
    "town": "Neatishead",
    "unit": "mAOD"
  },
  {
    "id": "47130",
    "lastReading": "2026-04-08T11:15:00Z",
    "lat": 50.560822,
    "level": 0.283,
    "lon": -4.480182,
    "name": "Bastreet",
    "readings": 655,
    "river": "Withy Brook",
    "status": "normal",
    "town": "Trebartha",
    "unit": "m"
  },
  {
    "id": "F2311",
    "lastReading": "2026-04-08T11:15:00Z",
    "lat": 54.145714,
    "level": 0.152,
    "lon": -1.36005,
    "name": "Bat Bridge",
    "readings": 671,
    "river": "Cundall Beck",
    "status": "normal",
    "town": "Cundall",
    "unit": "m"
  },
  {
    "id": "52161",
    "lastReading": "2026-04-08T11:15:00Z",
    "lat": 51.02589,
    "level": 8.023,
    "lon": -3.066549,
    "name": "Bathpool Outfall",
    "readings": 670,
    "river": "Old River Tone",
    "status": "severe",
    "town": "Bathpool",
    "unit": "m"
  },
  {
    "id": "52162",
    "lastReading": "2026-04-08T11:15:00Z",
    "lat": 51.025799,
    "level": 7.584,
    "lon": -3.066732,
    "name": "Bathpool Outfall",
    "readings": 670,
    "river": "River Tone",
    "status": "severe",
    "town": "Bathpool",
    "unit": "m"
  },
  {
    "id": "L1376",
    "lastReading": "2026-04-08T11:15:00Z",
    "lat": 53.71811,
    "level": 0.214,
    "lon": -1.638949,
    "name": "Batley Carlinghow",
    "readings": 671,
    "river": "Batley Beck",
    "status": "normal",
    "town": "Batley Carlinghow  (up stream)",
    "unit": "---"
  },
  {
    "id": "L1374",
    "lastReading": "2026-04-08T11:15:00Z",
    "lat": 53.699596,
    "level": 0.339,
    "lon": -1.630383,
    "name": "Batley Savile Street",
    "readings": 671,
    "river": "Batley Beck",
    "status": "normal",
    "town": "Batley Savile Street",
    "unit": "---"
  },
  {
    "id": "SU27_63",
    "lastReading": "2026-04-08T06:00:00Z",
    "lat": null,
    "level": 140.036,
    "lon": null,
    "name": "Baydon Hole OBH",
    "readings": 163,
    "river": "Unknown",
    "status": "offline",
    "town": "",
    "unit": "mAOD"
  },
  {
    "id": "690200",
    "lastReading": "2026-04-08T11:15:00Z",
    "lat": 53.59901,
    "level": 0.205,
    "lon": -2.095119,
    "name": "Beal Bridge",
    "readings": 671,
    "river": "River Beal",
    "status": "normal",
    "town": "Newhey",
    "unit": "m"
  },
  {
    "id": "5544TH",
    "lastReading": "2026-04-08T11:15:00Z",
    "lat": 51.528524,
    "level": -1.073,
    "lon": 0.165429,
    "name": "Beam Auto Sluice FD",
    "readings": 684,
    "river": "Unknown",
    "status": "normal",
    "town": "",
    "unit": "mAOD"
  },
  {
    "id": "44131",
    "lastReading": "2026-04-08T11:15:00Z",
    "lat": 50.807196,
    "level": 0.287,
    "lon": -2.739279,
    "name": "Beaminster",
    "readings": 671,
    "river": "River Brit",
    "status": "normal",
    "town": "Beaminster",
    "unit": "m"
  },
  {
    "id": "1919TH",
    "lastReading": "2026-04-08T11:15:00Z",
    "lat": 51.819387,
    "level": 0.382,
    "lon": -0.786131,
    "name": "Bearbrook FD",
    "readings": 671,
    "river": "Unknown",
    "status": "normal",
    "town": "",
    "unit": "mASD"
  },
  {
    "id": "E14330",
    "lastReading": "2026-04-08T11:00:00Z",
    "lat": 50.819049,
    "level": -0.209,
    "lon": -1.450824,
    "name": "Beaulieu",
    "readings": 670,
    "river": "Tide",
    "status": "normal",
    "town": "Beaulieu",
    "unit": "mAOD"
  },
  {
    "id": "E27431",
    "lastReading": "2026-04-08T11:15:00Z",
    "lat": 52.464571,
    "level": -0.017,
    "lon": 1.564233,
    "name": "Beccles Quay",
    "readings": 670,
    "river": "River Waveney",
    "status": "normal",
    "town": "Beccles",
    "unit": "mAOD"
  },
  {
    "id": "4150TH",
    "lastReading": "2026-04-08T11:15:00Z",
    "lat": 51.373583,
    "level": 0.319,
    "lon": -0.138986,
    "name": "Beddington Park",
    "readings": 671,
    "river": "River Wandle",
    "status": "normal",
    "town": "Beddington",
    "unit": "mASD"
  },
  {
    "id": "TQ26_143A",
    "lastReading": "2026-04-08T11:16:13Z",
    "lat": null,
    "level": 20.398,
    "lon": null,
    "name": "Beddington STW Chalk OBH",
    "readings": 812,
    "river": "Unknown",
    "status": "severe",
    "town": "",
    "unit": "mAOD"
  },
  {
    "id": "TQ26_143BU",
    "lastReading": "2026-04-08T11:16:13Z",
    "lat": null,
    "level": 17.159,
    "lon": null,
    "name": "Beddington STW Upper Sands OBH",
    "readings": 812,
    "river": "Unknown",
    "status": "severe",
    "town": "",
    "unit": "mAOD"
  },
  {
    "id": "693023",
    "lastReading": "2026-04-08T11:15:00Z",
    "lat": 53.496402,
    "level": 2.03,
    "lon": -2.501086,
    "name": "Bedford FW",
    "readings": 671,
    "river": "Unknown",
    "status": "severe",
    "town": "",
    "unit": "m"
  },
  {
    "id": "E65701",
    "lastReading": "2026-04-08T10:00:00Z",
    "lat": 52.229163,
    "level": 0.985,
    "lon": -0.868182,
    "name": "Bedford Road Sluice",
    "readings": 664,
    "river": "River Nene",
    "status": "normal",
    "town": "Great Houghton",
    "unit": "mAOD"
  },
  {
    "id": "E9140",
    "lastReading": "2026-04-08T09:45:00Z",
    "lat": 50.882836,
    "level": 0.776,
    "lon": -0.306828,
    "name": "Beeding Bridge",
    "readings": 665,
    "river": "River Adur",
    "status": "normal",
    "town": "Upper Beeding",
    "unit": "mAOD"
  },
  {
    "id": "SU56_220",
    "lastReading": "2026-04-08T05:00:00Z",
    "lat": null,
    "level": 50.109,
    "lon": null,
    "name": "Beenham OBH",
    "readings": 162,
    "river": "Unknown",
    "status": "offline",
    "town": "",
    "unit": "mAOD"
  },
  {
    "id": "52157",
    "lastReading": "2026-04-08T11:15:00Z",
    "lat": 51.079805,
    "level": 3.999,
    "lon": -2.869413,
    "name": "Beerwall Upstream",
    "readings": 671,
    "river": "River Sowy",
    "status": "severe",
    "town": "Othery",
    "unit": "m"
  },
  {
    "id": "731013",
    "lastReading": "2026-04-08T11:15:00Z",
    "lat": 54.218531,
    "level": 0.405,
    "lon": -2.774107,
    "name": "Beetham Weir",
    "readings": 671,
    "river": "River Bela",
    "status": "normal",
    "town": "Beetham",
    "unit": "m"
  },
  {
    "id": "51107",
    "lastReading": "2026-04-08T11:15:00Z",
    "lat": 51.14633,
    "level": 0.248,
    "lon": -3.373795,
    "name": "Beggearn Huish",
    "readings": 671,
    "river": "Washford River",
    "status": "normal",
    "town": "Washford",
    "unit": "m"
  },
  {
    "id": "021041",
    "lastReading": "2026-04-08T11:15:00Z",
    "lat": 55.598101,
    "level": 0.194,
    "lon": -1.830134,
    "name": "Belford",
    "readings": 671,
    "river": "Belford Burn",
    "status": "normal",
    "town": "Belford",
    "unit": "m"
  },
  {
    "id": "SD54_18D",
    "lastReading": "2026-04-08T07:00:00Z",
    "lat": null,
    "level": 12.076,
    "lon": null,
    "name": "Bell Lane",
    "readings": 152,
    "river": "Unknown",
    "status": "severe",
    "town": "",
    "unit": "m"
  },
  {
    "id": "E8730",
    "lastReading": "2026-04-08T11:00:00Z",
    "lat": 50.869751,
    "level": 4.881,
    "lon": 4.3e-05,
    "name": "Bell Lane Grill",
    "readings": 670,
    "river": "Winterbourne Stream",
    "status": "severe",
    "town": "Lewes",
    "unit": "mAOD"
  },
  {
    "id": "2702TH",
    "lastReading": "2026-04-08T11:15:00Z",
    "lat": 51.438166,
    "level": 0.159,
    "lon": -0.537257,
    "name": "Bell Weir",
    "readings": 671,
    "river": "River Thames",
    "status": "normal",
    "town": "Hythe End",
    "unit": "mASD"
  },
  {
    "id": "46123",
    "lastReading": "2026-04-08T11:00:00Z",
    "lat": 50.582293,
    "level": 0.549,
    "lon": -3.898034,
    "name": "Bellever",
    "readings": 670,
    "river": "East Dart River",
    "status": "normal",
    "town": "Bellever",
    "unit": "m"
  },
  {
    "id": "023037",
    "lastReading": "2026-04-08T11:15:00Z",
    "lat": 55.142852,
    "level": 0.208,
    "lon": -2.261953,
    "name": "Bellingham",
    "readings": 671,
    "river": "River North Tyne",
    "status": "normal",
    "town": "Bellingham",
    "unit": "m"
  },
  {
    "id": "4684",
    "lastReading": "2026-04-08T11:30:00Z",
    "lat": 53.029005,
    "level": 0.119,
    "lon": -1.458345,
    "name": "Belper",
    "readings": 671,
    "river": "Coppice Brook",
    "status": "normal",
    "town": "Belper",
    "unit": "mASD"
  },
  {
    "id": "4883",
    "lastReading": "2026-04-08T11:15:00Z",
    "lat": 53.029381,
    "level": 2.042,
    "lon": -1.486357,
    "name": "Belper LVL",
    "readings": 671,
    "river": "Unknown",
    "status": "severe",
    "town": "",
    "unit": "mASD"
  },
  {
    "id": "L0962",
    "lastReading": "2026-04-08T11:00:00Z",
    "lat": 53.542867,
    "level": 2.613,
    "lon": -1.127873,
    "name": "Bentley Ings Screen",
    "readings": 670,
    "river": "Fowler Bridge Drain",
    "status": "severe",
    "town": "Bentley Ings Screen",
    "unit": "mAOD"
  },
  {
    "id": "531192",
    "lastReading": "2026-04-08T11:30:00Z",
    "lat": 51.686426,
    "level": 0.255,
    "lon": -2.460679,
    "name": "Berkeley",
    "readings": 671,
    "river": "Little Avon River",
    "status": "normal",
    "town": "Berkeley",
    "unit": "m"
  },
  {
    "id": "SP90_69",
    "lastReading": "2026-04-08T10:00:00Z",
    "lat": null,
    "level": 113.523,
    "lon": null,
    "name": "Berkhamsted Dudswell Dudswell Lane",
    "readings": 665,
    "river": "Unknown",
    "status": "offline",
    "town": "",
    "unit": "mAOD"
  },
  {
    "id": "SP90_71",
    "lastReading": "2026-04-08T10:00:00Z",
    "lat": null,
    "level": 109.189,
    "lon": null,
    "name": "Berkhamsted Northchurch St Marys School",
    "readings": 665,
    "river": "Unknown",
    "status": "offline",
    "town": "",
    "unit": "mAOD"
  },
  {
    "id": "021999",
    "lastReading": "2026-04-08T11:15:00Z",
    "lat": 55.767093,
    "level": -0.842,
    "lon": -2.005082,
    "name": "Berwick",
    "readings": 671,
    "river": "River Tweed",
    "status": "normal",
    "town": "Berwick",
    "unit": "m"
  },
  {
    "id": "2015",
    "lastReading": "2026-04-08T11:15:00Z",
    "lat": 52.114425,
    "level": 0.231,
    "lon": -2.108012,
    "name": "Besford Bridge",
    "readings": 671,
    "river": "Bow Brook",
    "status": "normal",
    "town": "Pershore",
    "unit": "mASD"
  },
  {
    "id": "690420",
    "lastReading": "2026-04-08T11:30:00Z",
    "lat": 53.574738,
    "level": 0.048,
    "lon": -2.496394,
    "name": "Bessy Brook",
    "readings": 671,
    "river": "Bessy Brook",
    "status": "normal",
    "town": "Bolton",
    "unit": "m"
  },
  {
    "id": "SU48_90",
    "lastReading": "2026-04-08T10:00:00Z",
    "lat": null,
    "level": 106.551,
    "lon": null,
    "name": "Betterten OBH",
    "readings": 167,
    "river": "Unknown",
    "status": "offline",
    "town": "",
    "unit": "mAOD"
  },
  {
    "id": "L3207",
    "lastReading": "2026-04-08T11:15:00Z",
    "lat": 53.83905,
    "level": -0.389,
    "lon": -0.39525,
    "name": "Beverley Waterside Pumping Station",
    "readings": 671,
    "river": "Beverley and Barmston Drain",
    "status": "normal",
    "town": "Beverley Waterside Pumping Station",
    "unit": "---"
  },
  {
    "id": "2001",
    "lastReading": "2026-04-08T11:15:00Z",
    "lat": 52.383563,
    "level": 0.723,
    "lon": -2.322438,
    "name": "Bewdley",
    "readings": 671,
    "river": "River Severn",
    "status": "normal",
    "town": "Bewdley",
    "unit": "m3/s"
  },
  {
    "id": "46129",
    "lastReading": "2026-04-08T11:00:00Z",
    "lat": 50.539272,
    "level": 0.475,
    "lon": -3.702255,
    "name": "Bickington",
    "readings": 670,
    "river": "River Lemon",
    "status": "normal",
    "town": "Bickington",
    "unit": "m"
  },
  {
    "id": "2615",
    "lastReading": "2026-04-08T11:15:00Z",
    "lat": 52.164097,
    "level": 1.339,
    "lon": -1.857348,
    "name": "Bidford on Avon",
    "readings": 671,
    "river": "River Avon",
    "status": "alert",
    "town": "Bidford on Avon",
    "unit": "mASD"
  },
  {
    "id": "SJ28_34",
    "lastReading": "2026-04-08T06:00:00Z",
    "lat": null,
    "level": 35.291,
    "lon": null,
    "name": "Bidston Hill",
    "readings": 163,
    "river": "Unknown",
    "status": "severe",
    "town": "",
    "unit": "m"
  },
  {
    "id": "E19023",
    "lastReading": "2026-04-08T11:15:00Z",
    "lat": 52.085111,
    "level": 0.273,
    "lon": -0.267906,
    "name": "Biggleswade",
    "readings": 670,
    "river": "River Ivel",
    "status": "normal",
    "town": "Biggleswade",
    "unit": "mASD"
  },
  {
    "id": "E23036",
    "lastReading": "2026-04-08T11:15:00Z",
    "lat": 52.359187,
    "level": 0.236,
    "lon": 1.182279,
    "name": "Billingford",
    "readings": 671,
    "river": "River Waveney",
    "status": "normal",
    "town": "Oakley",
    "unit": "m"
  },
  {
    "id": "L3915",
    "lastReading": "2026-04-08T11:30:00Z",
    "lat": 54.616236,
    "level": 0.09,
    "lon": -1.285486,
    "name": "Billingham Pennington Close",
    "readings": 671,
    "river": "Cowbridge Beck",
    "status": "normal",
    "town": "Billingham Pennington Close",
    "unit": "m"
  },
  {
    "id": "E4803",
    "lastReading": "2026-04-08T11:15:00Z",
    "lat": 53.077892,
    "level": 0.485,
    "lon": -0.274288,
    "name": "Billinghay",
    "readings": 671,
    "river": "Billinghay Skirth",
    "status": "normal",
    "town": "Billinghay",
    "unit": "mASD"
  },
  {
    "id": "F1608",
    "lastReading": "2026-04-08T11:15:00Z",
    "lat": 53.85124,
    "level": 0.276,
    "lon": -1.842838,
    "name": "Bingley",
    "readings": 671,
    "river": "River Aire",
    "status": "normal",
    "town": "Catcliffe Drain",
    "unit": "m"
  },
  {
    "id": "5000",
    "lastReading": "2026-04-08T09:00:00Z",
    "lat": null,
    "level": 4.561,
    "lon": null,
    "name": "Bings Heath OBH",
    "readings": 331,
    "river": "Unknown",
    "status": "severe",
    "town": "",
    "unit": "mBDAT"
  },
  {
    "id": "SJ38_82",
    "lastReading": "2026-04-08T06:00:00Z",
    "lat": null,
    "level": -3.766,
    "lon": null,
    "name": "Birkenhead Park",
    "readings": 150,
    "river": "Unknown",
    "status": "normal",
    "town": "",
    "unit": "m"
  },
  {
    "id": "L1815",
    "lastReading": "2026-04-08T11:15:00Z",
    "lat": 53.731594,
    "level": 0.658,
    "lon": -1.147332,
    "name": "Birkin Holme Washlands",
    "readings": 671,
    "river": "River Aire",
    "status": "normal",
    "town": "Broomfleet Weighton Lock",
    "unit": "m"
  },
  {
    "id": "L1303",
    "lastReading": "2026-04-08T11:30:00Z",
    "lat": 53.709969,
    "level": 0.835,
    "lon": -1.464095,
    "name": "Birkwood",
    "readings": 671,
    "river": "River Calder",
    "status": "normal",
    "town": "Birkwood",
    "unit": "m"
  },
  {
    "id": "4662",
    "lastReading": "2026-04-08T11:30:00Z",
    "lat": 52.42894,
    "level": 0.285,
    "lon": -1.942444,
    "name": "Birmingham Bournville Woodbrooke Road",
    "readings": 671,
    "river": "Unknown",
    "status": "normal",
    "town": "",
    "unit": "mASD"
  },
  {
    "id": "4650",
    "lastReading": "2026-04-08T11:30:00Z",
    "lat": 52.44592,
    "level": 0.052,
    "lon": -1.959798,
    "name": "Birmingham Lodge Hill Elford Road",
    "readings": 671,
    "river": "Unknown",
    "status": "normal",
    "town": "",
    "unit": "mASD"
  },
  {
    "id": "4653",
    "lastReading": "2026-04-08T11:30:00Z",
    "lat": 52.538596,
    "level": 0.22,
    "lon": -1.909791,
    "name": "Birmingham Perry Beeches Beeches Road",
    "readings": 671,
    "river": "Unknown",
    "status": "normal",
    "town": "",
    "unit": "mASD"
  },
  {
    "id": "4704",
    "lastReading": "2026-04-08T11:30:00Z",
    "lat": 52.515907,
    "level": 90.02,
    "lon": -1.88041,
    "name": "Birmingham Witton Atlas Bridge",
    "readings": 671,
    "river": "Unknown",
    "status": "offline",
    "town": "",
    "unit": "mAOD"
  },
  {
    "id": "L1377",
    "lastReading": "2026-04-08T11:15:00Z",
    "lat": 53.727802,
    "level": 0.032,
    "lon": -1.661253,
    "name": "Birstall Smithies",
    "readings": 671,
    "river": "Batley Beck",
    "status": "normal",
    "town": "",
    "unit": "m"
  },
  {
    "id": "9404SE",
    "lastReading": "2026-04-08T06:00:23Z",
    "lat": null,
    "level": 77.619,
    "lon": null,
    "name": "Bishop Sutton CB GWL",
    "readings": 170,
    "river": "Unknown",
    "status": "offline",
    "town": "",
    "unit": "mAOD"
  },
  {
    "id": "E2846",
    "lastReading": "2026-04-08T11:15:00Z",
    "lat": 53.406624,
    "level": 0.139,
    "lon": -0.44906,
    "name": "Bishopbridge",
    "readings": 671,
    "river": "River Rase",
    "status": "normal",
    "town": "Bishopbridge",
    "unit": "mASD"
  },
  {
    "id": "055028_TG_9302",
    "lastReading": "2026-04-08T11:15:00Z",
    "lat": 52.137017,
    "level": 0.23,
    "lon": -2.488532,
    "name": "Bishops Frome",
    "readings": 671,
    "river": "River Frome (Wye)",
    "status": "normal",
    "town": "Bishops Frome",
    "unit": "mASD"
  },
  {
    "id": "5141TH",
    "lastReading": "2026-04-08T11:15:00Z",
    "lat": 51.878177,
    "level": 0.077,
    "lon": 0.160906,
    "name": "Bishops Stortford, Grange Paddocks",
    "readings": 671,
    "river": "River Stort",
    "status": "normal",
    "town": "Bishop's Stortford",
    "unit": "mASD"
  },
  {
    "id": "E12483",
    "lastReading": "2026-04-08T11:15:00Z",
    "lat": 50.969991,
    "level": 0.772,
    "lon": -1.33715,
    "name": "Bishopstoke",
    "readings": 671,
    "river": "River Itchen",
    "status": "normal",
    "town": "Bishopstoke",
    "unit": "mASD"
  },
  {
    "id": "1926",
    "lastReading": "2026-04-08T09:15:00Z",
    "lat": null,
    "level": 19.404,
    "lon": null,
    "name": "Bissell Wood Deep OBH",
    "readings": 663,
    "river": "Unknown",
    "status": "severe",
    "town": "",
    "unit": "mBDAT"
  },
  {
    "id": "53131",
    "lastReading": "2026-04-08T11:15:00Z",
    "lat": 51.426965,
    "level": 0.184,
    "lon": -2.459703,
    "name": "Bitton",
    "readings": 671,
    "river": "River Boyd",
    "status": "normal",
    "town": "Bitton",
    "unit": "m"
  },
  {
    "id": "1285SO",
    "lastReading": "2026-04-08T11:15:00Z",
    "lat": 51.085655,
    "level": 0.097,
    "lon": 1.177662,
    "name": "Black Bull Road",
    "readings": 671,
    "river": "Pent Stream",
    "status": "normal",
    "town": "Folkestone",
    "unit": "mAOD"
  },
  {
    "id": "713118",
    "lastReading": "2026-04-08T11:15:00Z",
    "lat": 53.736803,
    "level": 0.45,
    "lon": -2.496786,
    "name": "Blackburn Waterfall",
    "readings": 671,
    "river": "River Darwen",
    "status": "normal",
    "town": "Blackburn",
    "unit": "m"
  },
  {
    "id": "690205",
    "lastReading": "2026-04-08T11:15:00Z",
    "lat": 53.565791,
    "level": 0.128,
    "lon": -2.293258,
    "name": "Blackford Bridge",
    "readings": 671,
    "river": "River Roch",
    "status": "normal",
    "town": "Bury",
    "unit": "m"
  },
  {
    "id": "578",
    "lastReading": "2026-04-08T09:15:00Z",
    "lat": null,
    "level": 4.808,
    "lon": null,
    "name": "Blackstone OBH",
    "readings": 663,
    "river": "Unknown",
    "status": "severe",
    "town": "",
    "unit": "mBDAT"
  },
  {
    "id": "L24012",
    "lastReading": "2026-04-08T11:15:00Z",
    "lat": 53.707432,
    "level": 2.097,
    "lon": -0.725879,
    "name": "Blacktoft",
    "readings": 671,
    "river": "River Ouse",
    "status": "severe",
    "town": "Blacktoft",
    "unit": "mAOD"
  },
  {
    "id": "4088",
    "lastReading": "2026-04-08T11:15:00Z",
    "lat": 53.707031,
    "level": 2.097,
    "lon": -0.725316,
    "name": "Blacktoft TL",
    "readings": 671,
    "river": "Unknown",
    "status": "severe",
    "town": "",
    "unit": "mASD"
  },
  {
    "id": "754008",
    "lastReading": "2026-04-08T11:30:00Z",
    "lat": 54.762529,
    "level": 0.683,
    "lon": -3.278022,
    "name": "Blennerhasset Bridge",
    "readings": 671,
    "river": "River Ellen",
    "status": "normal",
    "town": "Blennerhasset",
    "unit": "m"
  },
  {
    "id": "SU46_139",
    "lastReading": "2026-04-08T05:00:00Z",
    "lat": null,
    "level": 98.789,
    "lon": null,
    "name": "Blind Mans Gate OBH",
    "readings": 162,
    "river": "Unknown",
    "status": "offline",
    "town": "",
    "unit": "mAOD"
  },
  {
    "id": "022999",
    "lastReading": "2026-04-08T11:15:00Z",
    "lat": 55.12861,
    "level": -0.667,
    "lon": -1.494986,
    "name": "Blyth",
    "readings": 671,
    "river": "North Sea",
    "status": "normal",
    "town": "Blyth",
    "unit": "mAOD"
  },
  {
    "id": "4159",
    "lastReading": "2026-04-08T11:15:00Z",
    "lat": 52.970005,
    "level": 0.318,
    "lon": -2.073464,
    "name": "Blythe Bridge",
    "readings": 671,
    "river": "River Blithe",
    "status": "normal",
    "town": "",
    "unit": "mASD"
  },
  {
    "id": "SU37_60",
    "lastReading": "2026-04-08T06:00:00Z",
    "lat": null,
    "level": 120.632,
    "lon": null,
    "name": "Bockhampton OBH",
    "readings": 163,
    "river": "Unknown",
    "status": "offline",
    "town": "",
    "unit": "mAOD"
  },
  {
    "id": "2225",
    "lastReading": "2026-04-08T11:15:00Z",
    "lat": 51.832287,
    "level": 0.049,
    "lon": -2.270144,
    "name": "Bodiam Avenue",
    "readings": 671,
    "river": "Daniels Brook",
    "status": "normal",
    "town": "Gloucester",
    "unit": "mASD"
  },
  {
    "id": "2425",
    "lastReading": "2026-04-08T11:15:00Z",
    "lat": 51.832287,
    "level": 0.372,
    "lon": -2.270144,
    "name": "Bodiam Avenue Relief Channel",
    "readings": 671,
    "river": "Daniels Brook",
    "status": "normal",
    "town": "Gloucester",
    "unit": "mASD"
  },
  {
    "id": "1437TH",
    "lastReading": "2026-04-08T11:15:00Z",
    "lat": 52.028582,
    "level": -0.21,
    "lon": -1.326852,
    "name": "Bodicote",
    "readings": 671,
    "river": "Sor Brook",
    "status": "normal",
    "town": "Bodicote",
    "unit": "mASD"
  },
  {
    "id": "49182",
    "lastReading": "2026-04-08T10:00:00Z",
    "lat": 50.474131,
    "level": 1.007,
    "lon": -4.757115,
    "name": "Bodmin Dunmere",
    "readings": 665,
    "river": "River Camel",
    "status": "alert",
    "town": "Bodmin",
    "unit": "m"
  },
  {
    "id": "SE46BBN0RD",
    "lastReading": "2026-04-08T06:00:00Z",
    "lat": null,
    "level": 13.747,
    "lon": null,
    "name": "Bogbridge North Drift",
    "readings": 649,
    "river": "Unknown",
    "status": "severe",
    "town": "",
    "unit": "mAOD"
  },
  {
    "id": "E10943",
    "lastReading": "2026-04-08T11:15:00Z",
    "lat": 50.797459,
    "level": -0.01,
    "lon": -0.667903,
    "name": "Bognor",
    "readings": 671,
    "river": "Aldingbourne Rife",
    "status": "normal",
    "town": "Aldingbourne",
    "unit": "mAOD"
  },
  {
    "id": "693515",
    "lastReading": "2026-04-08T11:15:00Z",
    "lat": 53.380045,
    "level": 0.348,
    "lon": -2.406589,
    "name": "Bollington Mill",
    "readings": 671,
    "river": "River Bollin",
    "status": "normal",
    "town": "Little Bollington",
    "unit": "m"
  },
  {
    "id": "690481",
    "lastReading": "2026-04-08T11:30:00Z",
    "lat": 53.599855,
    "level": 0.5,
    "lon": -2.435429,
    "name": "Bolton Hillview Road",
    "readings": 671,
    "river": "Unknown",
    "status": "normal",
    "town": "",
    "unit": "m"
  },
  {
    "id": "710200",
    "lastReading": "2026-04-08T11:30:00Z",
    "lat": 53.940669,
    "level": 0.073,
    "lon": -2.326107,
    "name": "Bolton by Bowland Hellifield rd",
    "readings": 671,
    "river": "Kirk Beck",
    "status": "normal",
    "town": "Bolton by Bowland",
    "unit": "m"
  },
  {
    "id": "2667",
    "lastReading": "2026-04-08T11:15:00Z",
    "lat": 51.834606,
    "level": 0.322,
    "lon": -2.193371,
    "name": "Bondend Road",
    "readings": 671,
    "river": "River Twyver",
    "status": "normal",
    "town": "Gloucester",
    "unit": "mASD"
  },
  {
    "id": "SU73_97",
    "lastReading": "2026-04-08T04:00:00Z",
    "lat": null,
    "level": 66.619,
    "lon": null,
    "name": "Bordon OBH",
    "readings": 161,
    "river": "Unknown",
    "status": "offline",
    "town": "",
    "unit": "mAOD"
  },
  {
    "id": "2608",
    "lastReading": "2026-04-08T11:30:00Z",
    "lat": 52.656574,
    "level": 0.196,
    "lon": -2.716652,
    "name": "Boreton Bridge",
    "readings": 671,
    "river": "Cound Brook",
    "status": "normal",
    "town": "",
    "unit": "mASD"
  },
  {
    "id": "2438SO",
    "lastReading": "2026-04-08T11:30:00Z",
    "lat": 51.000834,
    "level": 59.167,
    "lon": -0.944385,
    "name": "Borough Grove",
    "readings": 671,
    "river": "Petersfield Stream",
    "status": "offline",
    "town": "Petersfield",
    "unit": "mAOD"
  },
  {
    "id": "48138",
    "lastReading": "2026-04-08T04:00:00Z",
    "lat": 50.131125,
    "level": 0.4,
    "lon": -5.255319,
    "name": "Boscadjack",
    "readings": 642,
    "river": "River Cober",
    "status": "normal",
    "town": "Wendron",
    "unit": "m"
  },
  {
    "id": "49174",
    "lastReading": "2026-04-08T04:15:00Z",
    "lat": 50.68979,
    "level": 0.411,
    "lon": -4.692972,
    "name": "Boscastle County Bridge",
    "readings": 643,
    "river": "River Valency",
    "status": "normal",
    "town": "Boscastle",
    "unit": "m"
  },
  {
    "id": "E11090",
    "lastReading": "2026-04-08T11:00:00Z",
    "lat": 50.831317,
    "level": 0.343,
    "lon": -0.857887,
    "name": "Bosham Moreton Road",
    "readings": 670,
    "river": "Bosham Stream",
    "status": "normal",
    "town": "Bosham",
    "unit": "mAOD"
  },
  {
    "id": "E13300",
    "lastReading": "2026-04-08T11:15:00Z",
    "lat": 51.080218,
    "level": 0.312,
    "lon": -1.523543,
    "name": "Bossington",
    "readings": 670,
    "river": "Wallop Brook",
    "status": "normal",
    "town": "Bossington",
    "unit": "mAOD"
  },
  {
    "id": "764070",
    "lastReading": "2026-04-08T11:15:00Z",
    "lat": 54.89341,
    "level": 0.646,
    "lon": -2.910796,
    "name": "Botcherby Bridge, Carlisle",
    "readings": 671,
    "river": "River Petteril",
    "status": "normal",
    "town": "Botcherby, Carlisle",
    "unit": "m"
  },
  {
    "id": "152503002",
    "lastReading": "2026-04-08T10:45:00Z",
    "lat": 50.91869,
    "level": 0.432,
    "lon": -1.265211,
    "name": "Botley Mill Stream RL",
    "readings": 668,
    "river": "Unknown",
    "status": "normal",
    "town": "",
    "unit": "mASD"
  },
  {
    "id": "692117",
    "lastReading": "2026-04-08T11:15:00Z",
    "lat": 53.470933,
    "level": 0.049,
    "lon": -1.965681,
    "name": "Bottoms Reservoir",
    "readings": 671,
    "river": "Unknown",
    "status": "normal",
    "town": "",
    "unit": "m"
  },
  {
    "id": "SU85_47",
    "lastReading": "2026-04-08T10:00:00Z",
    "lat": null,
    "level": 67.921,
    "lon": null,
    "name": "Bourley Lane OBH",
    "readings": 167,
    "river": "Unknown",
    "status": "offline",
    "town": "",
    "unit": "mAOD"
  },
  {
    "id": "E24805",
    "lastReading": "2026-04-08T11:15:00Z",
    "lat": 52.192643,
    "level": 0.254,
    "lon": -0.064443,
    "name": "Bourn Brook",
    "readings": 670,
    "river": "Bourn Brook",
    "status": "normal",
    "town": "Bourn",
    "unit": "mASD"
  },
  {
    "id": "2645TH",
    "lastReading": "2026-04-08T11:15:00Z",
    "lat": 51.468767,
    "level": 23.254,
    "lon": -0.620387,
    "name": "Bourne Ditch at Spitalfields",
    "readings": 671,
    "river": "Unknown",
    "status": "severe",
    "town": "",
    "unit": "mAOD"
  },
  {
    "id": "3345THF",
    "lastReading": "2026-04-08T11:30:00Z",
    "lat": 51.350352,
    "level": 0.108,
    "lon": -0.250864,
    "name": "Bourne Hall GS",
    "readings": 671,
    "river": "Unknown",
    "status": "normal",
    "town": "",
    "unit": "m3/s"
  },
  {
    "id": "3345TH",
    "lastReading": "2026-04-08T11:15:00Z",
    "lat": 51.350352,
    "level": 0.19,
    "lon": -0.250864,
    "name": "Bourne Hall Ponds at Ewell",
    "readings": 671,
    "river": "Unknown",
    "status": "normal",
    "town": "",
    "unit": "mASD"
  },
  {
    "id": "1029TH",
    "lastReading": "2026-04-08T11:00:00Z",
    "lat": 51.874767,
    "level": -0.221,
    "lon": -1.740083,
    "name": "Bourton Dickler",
    "readings": 670,
    "river": "River Dikler",
    "status": "normal",
    "town": "Little Rissington",
    "unit": "mASD"
  },
  {
    "id": "E81959",
    "lastReading": "2026-04-08T06:00:00Z",
    "lat": 50.581483,
    "level": 0.421,
    "lon": -3.667814,
    "name": "Bovey Tracey Wifford Footbridge",
    "readings": 649,
    "river": "River Bovey Tributary",
    "status": "normal",
    "town": "Bovey Tracey Wifford Footbridge",
    "unit": "m"
  },
  {
    "id": "738345",
    "lastReading": "2026-04-08T11:15:00Z",
    "lat": 54.155019,
    "level": 0.173,
    "lon": -3.184714,
    "name": "Bow Bridge Abbey Road",
    "readings": 671,
    "river": "Poaka Beck",
    "status": "normal",
    "town": "Dalton In Furness",
    "unit": "m"
  },
  {
    "id": "SU09_163",
    "lastReading": "2026-04-08T07:00:00Z",
    "lat": null,
    "level": 88.252,
    "lon": null,
    "name": "Bow Wow OBH",
    "readings": 164,
    "river": "Unknown",
    "status": "offline",
    "town": "",
    "unit": "mAOD"
  },
  {
    "id": "TL10_113",
    "lastReading": "2026-04-08T11:00:00Z",
    "lat": null,
    "level": 82.91,
    "lon": null,
    "name": "Bowbridge OBH",
    "readings": 669,
    "river": "Unknown",
    "status": "offline",
    "town": "",
    "unit": "mAOD"
  },
  {
    "id": "SP00_142",
    "lastReading": "2026-04-08T07:00:00Z",
    "lat": null,
    "level": 111.883,
    "lon": null,
    "name": "Bowling Green Lane OBH",
    "readings": 164,
    "river": "Unknown",
    "status": "offline",
    "town": "",
    "unit": "mAOD"
  },
  {
    "id": "F3004",
    "lastReading": "2026-04-08T11:15:00Z",
    "lat": 54.093099,
    "level": 0.282,
    "lon": -0.263772,
    "name": "Boynton",
    "readings": 671,
    "river": "Gypsey Race",
    "status": "normal",
    "town": "Boynton",
    "unit": "m"
  },
  {
    "id": "SJ38_88",
    "lastReading": "2026-04-08T08:00:00Z",
    "lat": null,
    "level": 23.829,
    "lon": null,
    "name": "Brackenwood GC",
    "readings": 165,
    "river": "Unknown",
    "status": "severe",
    "town": "",
    "unit": "m"
  },
  {
    "id": "L1656",
    "lastReading": "2026-04-08T11:30:00Z",
    "lat": 53.795159,
    "level": 0.926,
    "lon": -1.791858,
    "name": "Bradford Greenside",
    "readings": 671,
    "river": "Bradford Beck",
    "status": "normal",
    "town": "Bradford Greenside",
    "unit": "m"
  },
  {
    "id": "531118",
    "lastReading": "2026-04-08T11:15:00Z",
    "lat": 51.521892,
    "level": -0.014,
    "lon": -2.521122,
    "name": "Bradley Bridge",
    "readings": 671,
    "river": "Bradley Brook",
    "status": "normal",
    "town": "Winterbourne",
    "unit": "m"
  },
  {
    "id": "SU47_26",
    "lastReading": "2026-04-08T10:00:00Z",
    "lat": null,
    "level": 102.574,
    "lon": null,
    "name": "Bradley Wood OBH",
    "readings": 167,
    "river": "Unknown",
    "status": "offline",
    "town": "",
    "unit": "mAOD"
  },
  {
    "id": "E9531",
    "lastReading": "2026-04-08T11:30:00Z",
    "lat": 51.148548,
    "level": 2.222,
    "lon": -2.945191,
    "name": "Bradney",
    "readings": 671,
    "river": "Kings Sedgemoor Drain",
    "status": "severe",
    "town": "Bradney Bridgwater",
    "unit": "m"
  },
  {
    "id": "E71333",
    "lastReading": "2026-04-08T11:30:00Z",
    "lat": 50.812445,
    "level": 1.12,
    "lon": -3.429297,
    "name": "Bradninch Hele Station Road",
    "readings": 671,
    "river": "River Culm",
    "status": "alert",
    "town": "",
    "unit": "m"
  },
  {
    "id": "4693",
    "lastReading": "2026-04-08T11:30:00Z",
    "lat": 53.328427,
    "level": 0.097,
    "lon": -1.738804,
    "name": "Bradwell",
    "readings": 671,
    "river": "Bradwell Brook",
    "status": "normal",
    "town": "Bradwell",
    "unit": "mASD"
  },
  {
    "id": "4827TH",
    "lastReading": "2026-04-08T11:15:00Z",
    "lat": 51.874477,
    "level": 0.055,
    "lon": -0.149495,
    "name": "Bragbury Park",
    "readings": 671,
    "river": "Stevenage Brook",
    "status": "normal",
    "town": "Bragbury End",
    "unit": "mASD"
  },
  {
    "id": "E31329",
    "lastReading": "2026-04-08T04:00:00Z",
    "lat": 51.881322,
    "level": 0.222,
    "lon": 0.517361,
    "name": "Braintree",
    "readings": 641,
    "river": "Pods Brook",
    "status": "normal",
    "town": "",
    "unit": "mAOD"
  },
  {
    "id": "E24808",
    "lastReading": "2026-04-08T11:15:00Z",
    "lat": 52.309767,
    "level": 0.18,
    "lon": 1.520192,
    "name": "Bramfield",
    "readings": 670,
    "river": "Bramfield Watercourse",
    "status": "normal",
    "town": "",
    "unit": "mAOD"
  },
  {
    "id": "692665",
    "lastReading": "2026-04-08T07:00:00Z",
    "lat": 53.374217,
    "level": 0.163,
    "lon": -2.157174,
    "name": "Bramhall Green Bridge Lane",
    "readings": 653,
    "river": "Micker Brook",
    "status": "normal",
    "town": "Bramhall Green",
    "unit": "m"
  },
  {
    "id": "E47518",
    "lastReading": "2026-04-08T11:30:00Z",
    "lat": 52.321266,
    "level": 9.177,
    "lon": -0.23126,
    "name": "Brampton",
    "readings": 671,
    "river": "Brampton Brook",
    "status": "severe",
    "town": "Brampton",
    "unit": "m"
  },
  {
    "id": "763404",
    "lastReading": "2026-04-08T11:30:00Z",
    "lat": 54.942516,
    "level": 0.054,
    "lon": -2.73365,
    "name": "Brampton Moat Side",
    "readings": 671,
    "river": "Brampton Beck",
    "status": "normal",
    "town": "Brampton",
    "unit": "m"
  },
  {
    "id": "E21713",
    "lastReading": "2026-04-08T11:15:00Z",
    "lat": 52.330595,
    "level": 0.137,
    "lon": -0.227967,
    "name": "Brampton Racecourse",
    "readings": 670,
    "river": "Alconbury Brook",
    "status": "normal",
    "town": "Brampton",
    "unit": "m"
  },
  {
    "id": "E21397",
    "lastReading": "2026-04-08T11:15:00Z",
    "lat": 52.194631,
    "level": 0.306,
    "lon": 1.273844,
    "name": "Brandeston",
    "readings": 671,
    "river": "River Deben",
    "status": "normal",
    "town": "Brandeston",
    "unit": "mAOD"
  },
  {
    "id": "E40684",
    "lastReading": "2026-04-08T10:00:00Z",
    "lat": 53.460884,
    "level": 0.441,
    "lon": -0.474196,
    "name": "Brandy Wharf",
    "readings": 666,
    "river": "River Ancholme",
    "status": "normal",
    "town": "Brandy Wharf",
    "unit": "mAOD"
  },
  {
    "id": "E13851",
    "lastReading": "2026-04-08T11:00:00Z",
    "lat": 51.177844,
    "level": 0.608,
    "lon": -1.39845,
    "name": "Bransbury",
    "readings": 670,
    "river": "River Dever",
    "status": "normal",
    "town": "Bransbury",
    "unit": "mAOD"
  },
  {
    "id": "2086",
    "lastReading": "2026-04-08T11:15:00Z",
    "lat": 52.177055,
    "level": 0.694,
    "lon": -2.28833,
    "name": "Bransford",
    "readings": 671,
    "river": "River Teme",
    "status": "normal",
    "town": "Bransford",
    "unit": "mASD"
  },
  {
    "id": "L3243",
    "lastReading": "2026-04-08T11:15:00Z",
    "lat": 53.804698,
    "level": -1.273,
    "lon": -0.309166,
    "name": "Bransholme Great Culvert Pumping Station",
    "readings": 671,
    "river": "Holderness Drain",
    "status": "normal",
    "town": "Bransholme Great Culvert Pumping Station",
    "unit": "mAOD"
  },