station_id,label,river,town,lat,lon,unit,latest_level,latest_reading,reading_count
SU65_21,142 Pack Lane OBH,,,,,mAOD,93.134,2026-04-08T11:00:00Z,669
SU74_011,6 Cottages Clean OBH,,,,,mAOD,85.862,2026-04-08T10:00:00Z,167
720215,A6 Bridge,River Brock,Bilsborrow,53.858854,-2.743276,m,0.376,2026-04-08T11:15:00Z,671
E12513,ABBEY MILL RL,,,51.060548,-1.310016,mAOD,35.732,2026-04-08T11:20:46Z,1322
E4350,ALDINGTON FSA DS,,,51.105308,0.950683,mAOD,44.626,2026-04-08T11:30:00Z,671
45173,ALFINGTON NORTH,,,,,mBDAT,11.341,2026-04-08T11:00:00Z,670
E9882,ALFOLDEAN GS,,,,,m3/s,0.342,2026-04-08T11:30:00Z,671
E4838,ALFORD GS WITS,,,53.261383,0.17789,mAOD,3.859,2026-04-08T11:30:00Z,671
E12432,ALLBROOK GS,,,50.987906,-1.343862,m3/s,2.327,2026-04-08T11:15:00Z,671
E3041,ALLINGTON GS WITS,,,52.949749,-0.703007,m3/s,0.078,2026-04-08T11:15:00Z,671
E580,ALLINGTON USGS,,,51.289276,0.509035,m3/s,6.595,2026-04-08T11:15:00Z,671
E15090,ALVERSTONE GWL,,,,,mAOD,20.115,2026-04-08T11:20:45Z,838
SU99_67,AMERSHAM ROAD OBH,,,,,mAOD,78.574,2026-04-08T10:00:00Z,167
SP00_62,AMPNEY CRUCIS OBH,,,,,mAOD,102.064,2026-04-08T10:00:00Z,167
SP00_55,AMPNEY ST PETER OBH,,,,,mAOD,93.908,2026-04-08T07:00:00Z,164
E4840,ANDERBY CREEK SLUICE,,,53.258,0.325551,mAOD,0.269,2026-04-08T11:30:00Z,671
48109,ANGARRACK,,,50.192101,-5.383946,m,0.061,2026-04-08T08:15:00Z,659
E8263,ARDINGLY OUSE GS,,,51.039038,-0.099359,m3/s,0.113,2026-04-08T11:00:00Z,670
E8240,ARDINGLY SHELLBROOK GS,,,51.041711,-0.097823,mAOD,37.643,2026-04-08T11:15:00Z,671
E8242,ARDINGLY SHELLBROOK GS,,,51.041373,-0.097452,m3/s,0.115,2026-04-08T11:30:00Z,671
E22346,ARLESEY GS,,,52.026749,-0.266824,m3/s,0.393,2026-04-08T11:00:00Z,670
E3481,ASH LEVEL PS,,,,,mAOD,0.594,2026-04-08T11:30:00Z,671
E4360,ASHFORD CROSSING USGS,,,51.142293,0.877089,mAOD,33.962,2026-04-08T11:15:00Z,671
E4362,ASHFORD CROSSING USGS,,,51.142293,0.877089,m3/s,0.564,2026-04-08T11:15:00Z,671
531171,ASHTON VALE,,,51.438888,-2.626483,mAOD,4.985,2026-04-08T11:15:00Z,671
E14541,ASHURST BRIDGE GS,,,50.911386,-1.509934,m3/s,0.033,2026-04-08T11:15:00Z,671
531167,AVON MILL,,,51.496678,-2.066914,mAOD,47.895,2026-04-08T11:15:00Z,671
531168,AVON MILL,,,51.496678,-2.066914,mAOD,49.308,2026-04-08T11:15:00Z,671
531165,AVON WEIR,,,51.511693,-2.066547,mAOD,50.649,2026-04-08T11:15:00Z,671
531166,AVON WEIR,,,51.511693,-2.066547,mAOD,49.356,2026-04-08T11:15:00Z,671
53118,AVONMOUTH TIDAL,,,51.508182,-2.718065,mAOD,3.511,2026-04-08T11:15:00Z,671
E4417,AYLESFORD STREAM USGS,,,51.135619,0.8924,m3/s,0.134,2026-04-08T11:00:00Z,670
E23730,Abbey Heath,River Little Ouse,Abbey Heath,52.425882,0.720787,m,0.255,2026-04-08T11:15:00Z,670
2700,Abbey Mill GATE,,,51.991326,-2.162837,mASD,9.851,2026-04-08T11:15:00Z,671
SJ56_125,Abbotts D Scouts Gate,,,,,m,2.664,2026-04-08T06:00:00Z,163
SJ56_126,Abbotts E,,,,,m,5.631,2026-04-08T06:00:00Z,163
E70724,Aberdeen,,,57.14406,-2.08013,m,1.599,2026-04-08T11:30:00Z,669
E70739,Aberdeen,,,57.14406,-2.08013,mAOD,-0.724,2026-04-08T11:15:00Z,669
1790TH,Abingdon,River Ock,Abingdon,51.666656,-1.305189,mASD,-0.281,2026-04-08T11:15:00Z,671
1681TH,Abingdon Peachcroft,Radley Park Ditch,Abingdon,51.683092,-1.268125,mASD,0.65,2026-04-08T11:15:00Z,671
SU56_116,Able Bridge OBH,,,,,mAOD,58.047,2026-04-08T10:00:00Z,167
023062,Acomb Garden House,Birkey Burn,Acomb Garden House,54.988973,-2.110623,m,0.001,2026-04-08T11:30:00Z,671
023063,Acomb Millersfield,Red Burn,Acomb Millersfield,54.994482,-2.110967,m,0.283,2026-04-08T11:30:00Z,671
SP00_146,Acotts Barn OBH,,,,,mAOD,114.094,2026-04-08T06:00:00Z,163
682218,Acton Bridge,River Weaver,Acton Bridge,53.279474,-2.599522,m,2.654,2026-04-08T11:30:00Z,671
7050,Adcote LVL,,,,,mBDAT,7.71,2026-04-08T09:00:00Z,166
4181,Adderley (Cheadle) LVL,,,52.991475,-2.013285,mASD,0.22,2026-04-08T11:15:00Z,671
L1931,Addingham, Town Beck,Town Beck,Addingham,53.944393,-1.886441,m,0.114,2026-04-08T11:15:00Z,671
4259,Agnes Meadow,Henmore Brook,Agnes Meadow Bridge, Ashbourne,53.023273,-1.680181,mASD,0.144,2026-04-08T11:30:00Z,671
TA04A000CC,Aike,,,,,mAOD,2.646,2026-04-08T06:00:00Z,650
SD31_45,Ainsdale High School,,,,,m,1.675,2026-04-08T07:00:00Z,164
NY54_10,Ainstable,,,,,m,23.243,2026-04-08T07:00:00Z,164
SJ79_34A,Akzo Noble,,,,,m,5.265,2026-04-08T07:00:00Z,164
2846,Albrighton ABH,,,,,mBDAT,36.5,2026-04-08T11:00:00Z,168
E19027,Alconbury Weston,Alconbury Brook,Alconbury Weston,52.377001,-0.269421,mASD,0.196,2026-04-08T11:15:00Z,670
E4351,Aldington Upstream,East Stour Trib  Great Stour,Aldington,51.105167,0.948046,mASD,-0.042,2026-04-08T11:15:00Z,671
E9883,Alfoldean,River Arun,Horsham,51.086792,-0.406225,mASD,0.124,2026-04-08T11:15:00Z,671
1480SO,Alkham Valley,Groundwater Level,,51.139335,1.236398,mAOD,44.415,2026-04-08T11:00:00Z,168
E12446,Allbrook and Highbridge Summed Flow,,,50.990394,-1.33552,m3/s,8.814,2026-04-08T11:30:00Z,671
023036,Allen Mill Bridge,River East Allen,Allendale Town,54.904713,-2.265082,m,0.215,2026-04-08T11:15:00Z,671
E581,Allington Marina,River Medway,Sandling,51.291026,0.511282,mASD,0.165,2026-04-08T11:15:00Z,671
736417,Allotments,Town Beck,Ulverston,54.193218,-3.084524,m,0.116,2026-04-08T11:30:00Z,671
023009,Alston,River South Tyne,Alston,54.812531,-2.443415,m,0.235,2026-04-08T11:15:00Z,671
SU73_93,Alton Town OBH,,,,,mAOD,101.214,2026-04-08T10:00:00Z,167
3610SO,Alverstone,Eastern Yar,Alverstone,50.667206,-1.184737,mAOD,2.459,2026-04-08T11:15:00Z,671
022014,Alwinton Bridge,River Coquet,Alwinton,55.344803,-2.122952,m,0.259,2026-04-08T05:45:00Z,649
735019,Ambleside Rydal Road,Stock Ghyll,Ambleside,54.433747,-2.965717,m,0.187,2026-04-08T11:30:00Z,671
E8330,Anchor Gates,River Ouse,Barcombe,50.924994,0.050081,mAOD,6.56,2026-04-08T11:00:00Z,670
E13860,Andover Town Mill,River Anton,Andover,51.20755,-1.482278,mAOD,56.429,2026-04-08T11:00:00Z,670
4147,Anslow,Rolleston Brook,,52.839223,-1.665782,mASD,0.315,2026-04-08T11:30:00Z,671
L1602,Apperley Bridge,River Aire,,53.837637,-1.706351,m,0.121,2026-04-08T11:15:00Z,671
4087TH,Arabella Drive,,,51.465498,-0.253664,mASD,0.073,2026-04-08T11:15:00Z,671
SU76_44,Arborfield OBH,,,,,mAOD,37.401,2026-04-08T05:00:00Z,162
E8266,Ardingly,River Ouse,Ardingly,51.038451,-0.100268,mASD,0.119,2026-04-08T11:00:00Z,670
E22344,Arlesey,River Hiz,Arlesey,52.026751,-0.266941,m,0.093,2026-04-08T11:00:00Z,670
2272,Armscroft Place,Wotton Brook,Gloucester,51.863183,-2.221361,mASD,0.023,2026-04-08T11:15:00Z,671
710103,Arnford Weir,River Ribble,Arnford Weir,53.996041,-2.247662,m,0.399,2026-04-08T11:15:00Z,671
4701,Ashby De La Zouch,Gilwiskaw Brook,Ashby De La Zouch,52.735604,-1.469362,mASD,0.102,2026-04-08T11:30:00Z,671
45131,Ashclyst,River Clyst,Ashclyst,50.776088,-3.403906,m,0.182,2026-04-08T11:15:00Z,671
SP90_64,Ashley Green STW OBH,,,,,mAOD,125.214,2026-04-08T10:30:00Z,668
43170,Ashmore,Groundwater Level,Ashmore,50.95784,-2.13093,mAOD,133.856,2026-04-08T09:00:00Z,662
SU47_140,Ashridge Wood OBH,,,,,mAOD,107.195,2026-04-08T05:02:39Z,169
53184,Ashton Vale,River Avon,Leigh Woods,51.439017,-2.62578,mASD,1.009,2026-04-08T11:15:00Z,671
E14540,Ashurst Bridge,Bartley Water,Ashurst Bridge,50.910849,-1.510651,mAOD,3.734,2026-04-08T11:15:00Z,671
4124,Aston Bridge,River Dove,Sudbury,52.877141,-1.759128,mASD,0.8,2026-04-08T11:15:00Z,671
SU09_165,Aston Keynes OBH,,,,,mAOD,82.628,2026-04-08T07:00:00Z,164
4182,Astonfields,Sandyford Brook,,52.817973,-2.113758,mASD,0.207,2026-04-08T11:15:00Z,671
E14741,Atherfield,Atherfield Brook,Atherfield,50.61912,-1.353938,mASD,0.266,2026-04-08T11:30:00Z,671
693012,Atherton Shakerley Road,Shakerley Brook,Atherton,53.516028,-2.473734,m,0.088,2026-04-08T11:30:00Z,671
693013,Atherton Woodland Drive,Carr Brook,Atherton,53.534764,-2.477157,m,0.113,2026-04-08T11:30:00Z,671
692810,Athol Road,,,53.439852,-2.246761,m,0.045,2026-04-08T11:15:00Z,671
E72624,Avonmouth Portbury,,,51.50291,-2.6988,m,10.312,2026-04-08T11:00:00Z,593
E72639,Avonmouth Portbury,Tide,Avonmouth,51.49999,-2.728468,mAOD,3.812,2026-04-08T11:00:00Z,593
E81939,Axminster Wilhay Lane,Mill Brook,,50.788575,-2.995254,m,0.133,2026-04-08T06:00:00Z,649
1925TH,Aylesbury,Bear Brook,Aylesbury,51.817792,-0.801624,mASD,1.112,2026-04-08T11:15:00Z,671
E4412,Aylesford Stream,Old Mill Stream,Park Farm,51.133674,0.880127,mASD,0.951,2026-04-08T11:11:41Z,1321
0095SE,Aylesford Stream Medway GS,,,51.305709,0.484894,mAOD,0.161,2026-04-08T11:30:00Z,671
E21412,BABRAHAM GS,,,52.131206,0.205231,m3/s,0.21,2026-04-08T11:15:00Z,670
SD52_17A,BAE Systems,,,,,m,18.963,2026-04-08T05:00:00Z,162
444510,BAGGS MILL TO BE WITSD,,,50.687985,-2.123098,m3/s,3.55,2026-04-08T09:00:00Z,659
E23983,BAITS BITE LOCK SLUICE AUTOMATION DUAL COMMS,,,52.236107,0.176171,m,3.85,2026-04-08T10:00:00Z,654
E8653,BARCOMBE GATES RL,,,50.91529,0.039283,m3/s,1.765,2026-04-08T11:30:00Z,671
E22570,BARDFIELD BRIDGE FGS,,,52.04711,0.693116,m,0.186,2026-04-08T10:00:00Z,666
E22571,BARDFIELD BRIDGE FGS,,,52.04711,0.693116,m3/s,0.145,2026-04-08T10:00:00Z,666
43179,BARFORD CEMETERY GW DNP3 NEW,,,,,mAOD,62.763,2026-04-08T08:00:00Z,657
E24804,BARNHAM BROOM GS,,,52.625574,1.064334,mAOD,21.668,2026-04-08T10:30:00Z,668
Barstaple_Yeo_FC,BARNSTAPLE RALEIGH MEADOW,,,51.087045,-4.052625,mAOD,3.7,2026-04-08T08:00:00Z,657
E4816,BARNWELL FSR WITS,,,52.442994,-0.457726,mAOD,32.577,2026-04-08T11:15:00Z,671
E1001,BARROW HAVEN OUTFALL SLUICE,,,53.689194,-0.390535,mAOD,1.96,2026-04-08T11:30:00Z,670
E3042,BARROWDEN GS,,,52.588634,-0.601801,m3/s,0.973,2026-04-08T11:15:00Z,671
E1486,BATH LARKHALL ST SAVIOURS RD,,,51.40089,-2.344082,m,0.093,2026-04-08T07:00:00Z,653
E22890,BEACHES MILL FGS GSM,,,51.737726,0.446926,m3/s,0.537,2026-04-08T11:15:00Z,670
E45951,BEACHES MILL SECONDARY GS GSM,,,51.737726,0.446926,m,0.321,2026-04-08T11:15:00Z,671
44150,BEAMINSTER FAS UPSTREAM RL WITS,,,50.809858,-2.726377,m,0.073,2026-04-08T11:15:00Z,671
448115,BEAMINSTER THE ORCHARD RL,,,50.812857,-2.738489,m,0.14,2026-04-08T11:30:00Z,671
E7441,BEDDINGHAM PS,,,50.853942,0.04918,mAOD,1.221,2026-04-08T11:15:00Z,671
E22596,BEDFORD GS,,,52.134213,-0.462378,mAOD,24.999,2026-04-08T11:15:00Z,671
E1048,BEDFORD ROAD SLUICE NORTHAMPTON AUTOMATION,,,52.134213,-0.462378,mAOD,55.989,2026-04-08T07:00:00Z,641
E65711,BEDFORD ROAD SLUICE NORTHAMPTON AUTOMATION,,,52.228761,-0.866582,mAOD,55.988,2026-04-08T10:00:00Z,664
2308SO,BEEDING HILL GWL,,,,,mAOD,66.858,2026-04-08T11:00:00Z,168
E22300-southern,BEKESBOURNE HILL FARM GWL,,,,,mAOD,15.741,2026-04-08T11:16:47Z,1316
E8731,BELL LANE GRILL RL,,,50.869751,4.3e-05,mAOD,4.666,2026-04-08T11:30:00Z,671
E2835,BELMESTHORPE GS GSM,,,52.681277,-0.460086,mASD,0.174,2026-04-08T11:15:00Z,671
E3043,BELMESTHORPE GS GSM,,,52.681277,-0.460086,m3/s,1.145,2026-04-08T11:15:00Z,671
E14992,BEMBRIDGE GATES TL,,,50.693188,-1.108712,mAOD,-0.018,2026-04-08T11:15:00Z,671
E21022,BENHALL BRIDGE GS,,,52.202693,1.49185,mASD,0.087,2026-04-08T11:15:00Z,670
E23028,BEVERSHAM GS,,,52.172121,1.449999,m,0.201,2026-04-08T11:15:00Z,671
E1932,BEWL BRIDGE GS,,,51.087041,0.406879,m3/s,0.109,2026-04-08T11:15:00Z,670
NY53_51,BGS EV2,,,,,m,4.18,2026-04-08T07:00:00Z,164
0657TH,BIBURY SPRINGS AT BIBURY (SWAN HOTEL),,,51.761248,-1.835566,mASD,0.109,2026-04-08T10:00:00Z,666
0655TH,BIBURY SPRINGS AT BIBURY (TROUT FARM),,,51.761338,-1.835711,mASD,0.16,2026-04-08T10:00:00Z,666
E1005,BILLING LOCK WITS,,,52.242084,-0.810734,mAOD,51.056,2026-04-08T11:00:00Z,670
E1491,BILSBY GS WITS,,,53.268103,0.197262,mASD,0.139,2026-04-08T11:15:00Z,670
E21726,BINTREE MILL SLUICE,,,52.779213,0.961997,mAOD,25.884,2026-04-08T11:15:00Z,671
E1534,BISHOPBRIDGE R ANCHOLME GS,,,53.406544,-0.449815,m,0.113,2026-04-08T11:15:00Z,670
E6204,BLACK GOWT OUTFALL SALTFLEET WITS,,,53.4179,0.189072,mAOD,0.803,2026-04-08T11:30:00Z,671
E3530,BLACK SLUICE PS,,,,,mAOD,0.564,2026-04-08T11:15:00Z,670
E1436,BLACK SLUICE PS BOSTON,,,52.967102,-0.026238,mAOD,-0.007,2026-04-08T10:00:00Z,665
E14750,BLACKWATER GS,,,50.675611,-1.28567,mAOD,13.853,2026-04-08T11:30:00Z,671
E14752,BLACKWATER GS,,,50.675611,-1.28567,m3/s,0.204,2026-04-08T11:30:00Z,671
434313,BLANDFORD LANGTON MEADOWS,,,50.855587,-2.16079,m,0.129,2026-04-08T11:30:00Z,671
E21648,BLUNHAM GS,,,52.144561,-0.316796,m3/s,2.678,2026-04-08T10:00:00Z,666
SD43_38,BNFL Springfields,,,,,m,11.728,2026-04-08T07:00:00Z,164
49152,BODMIN CROCKWELL STREET,,,50.471699,-4.718637,m,0.074,2026-04-08T11:15:00Z,671
49167,BODMIN CUMMINGS GARAGE,,,50.46745,-4.708401,m,0.057,2026-04-08T11:15:00Z,670
49169,BODMIN FLAXMOOR TERRACE,,,50.475136,-4.726699,m,0.148,2026-04-08T04:15:00Z,642
49114,BODMIN PRIORY POND,,,50.470264,-4.716144,m,0.374,2026-04-08T11:00:00Z,670
E7100,BOREHAM BRIDGE GS,,,,,m3/s,0.335,2026-04-08T11:30:00Z,671
E12552,BOROUGH BRIDGE GS,,,51.088542,-1.188235,m3/s,0.965,2026-04-08T11:15:00Z,671
48111,BOSCUNDLE,,,50.343417,-4.749042,m,0.375,2026-04-08T11:15:00Z,671
E13301,BOSSINGTON GS,,,51.080498,-1.523854,mASD,0.342,2026-04-08T11:00:00Z,670
E68651,BOSTON BARRIER WITS,,,52.966495,-0.023228,mAOD,1.176,2026-04-08T11:30:00Z,671
E1427,BOSTON GRAND SLUICE AUTOMATION,,,52.981286,-0.029852,mAOD,1.494,2026-04-08T11:15:00Z,669
E1460,BOSTON GRAND SLUICE AUTOMATION,,,52.981286,-0.029852,mAOD,1.458,2026-04-08T11:15:00Z,668
E21026,BOTTISHAM PS WITS,,,52.269652,0.212141,mASD,1.676,2026-04-08T11:15:00Z,670
E61301,BOTTISHAM SLUICE AUTOMATION,,,52.268767,0.208506,mAOD,2.61,2026-04-08T10:00:00Z,665
SU57_153,BOTTOM BARN OBH,,,,,mAOD,92.925,2026-04-08T05:00:00Z,162
E23014,BOUNSTEAD BRIDGE FGS COLCHESTER,,,51.847787,0.880496,m,0.158,2026-04-08T10:02:36Z,670
E23015,BOUNSTEAD BRIDGE FGS COLCHESTER,,,51.847787,0.880496,m3/s,0.252,2026-04-08T10:00:00Z,665
E1957,BOURNE EAU PS WITS,,,52.754349,-0.28934,mAOD,2.849,2026-04-08T11:00:00Z,670
46134,BOVEY PARKE,,,50.595603,-3.682853,m3/s,1.425,2026-04-08T11:00:00Z,670
E4819,BOZEAT FSR WITS,,,52.219214,-0.669482,mAOD,80.333,2026-04-08T11:15:00Z,671
50104,BRADIFORD,,,51.090417,-4.069497,m,6.039,2026-04-08T11:00:00Z,669
E23042,BRAMFORD FGS,,,52.075981,1.10243,mASD,0.63,2026-04-08T11:15:00Z,670
E24492,BRAMPTON RACECOURSE GS,,,52.330546,-0.228322,m3/s,0.103,2026-04-08T11:15:00Z,670
E23774,BRAMPTON SLUICE AUTOMATION,,,52.320084,-0.205967,mAOD,10.025,2026-04-08T10:15:00Z,657
E700,BRANBRIDGES RL,,,51.207227,0.390032,mAOD,12.778,2026-04-08T11:15:00Z,671
E13850,BRANSBURY USGS,,,51.177927,-1.396961,m3/s,1.536,2026-04-08T11:00:00Z,670
E4849,BRANSBY CATCHWATER PS GSM,,,53.298307,-0.64444,mAOD,4.3,2026-04-08T10:04:45Z,693
E45802,BRANSTON DELPH PENSTOCK GSM,,,53.224322,-0.369386,mAOD,0.659,2026-04-08T11:15:00Z,670
E4858,BRANSTON DELPH SLUICE,,,53.208965,-0.412526,mAOD,2.759,2026-04-08T10:00:00Z,664
E65001,BRANSTON ISLAND SLUICE AUTOMATION GSM DUAL COMMS,,,53.218281,-0.347898,mAOD,1.5,2026-04-08T10:09:50Z,148
E3012,BRANT BROUGHTON GS,,,53.08037,-0.61448,m3/s,0.078,2026-04-08T11:15:00Z,671
E68200,BRANT CONTROL SLUICE AUBOURN WITS,,,53.151141,-0.583477,mAOD,4.43,2026-04-08T11:30:00Z,671
E1597,BRATOFT ROAD BRIDGE GS WITS,,,53.157991,0.217825,mAOD,1.553,2026-04-08T11:15:00Z,670
E6150,BREDE GS,,,50.930687,0.579348,mAOD,2.779,2026-04-08T11:15:00Z,671
E6154,BREDE GS,,,,,m3/s,1.143,2026-04-08T11:30:00Z,671
1610SO,BREDE SLUICE RL,,,50.930687,0.579348,mAOD,1.186,2026-04-08T11:30:00Z,671
448301,BRIDPORT EAST BRIDGE,,,50.732016,-2.752023,m3/s,0.606,2026-04-08T11:30:00Z,671
44108,BRIDPORT GUNDRY UPSTREAM,,,50.735508,-2.761347,m,-0.001,2026-04-08T11:15:00Z,671
44141,BRIDPORT MAGDALEN LANE WITS,,,50.732776,-2.766602,m,0.367,2026-04-08T11:15:00Z,658
44142,BRIDPORT MAGDALEN LANE WITS,,,50.732776,-2.766602,m3/s,0.119,2026-04-08T11:15:00Z,658
53189,BRISTOL HARBOUR,,,51.446249,-2.616828,mAOD,3.617,2026-04-08T11:15:00Z,671
E2534,BRISTOL NETHAM LOCK,,,51.452001,-2.554418,m3/s,4.526,2026-04-08T11:30:00Z,671
E2539,BRISTOL NETHAM LOCK,,,51.452001,-2.554418,m/s,,2026-04-08T11:30:00Z,671
E2540,BRISTOL NETHAM LOCK,,,51.452001,-2.554418,m/s,0.707,2026-04-08T11:30:00Z,671
E30004,BRISTOL WADE STREET,,,51.459659,-2.581024,m3/s,0.653,2026-04-08T11:30:00Z,671
E22519,BROAD GREEN GS GSM,,,52.048992,0.462076,m3/s,0.04,2026-04-08T11:15:00Z,670
E12290,BROADHALFPENNYDOWN GWL,,,,,mAOD,48.96,2026-04-08T11:10:47Z,1319
43180,BROADLEY WOOD DNP3,,,,,m,78.528,2026-04-08T10:45:00Z,668
E21404,BROUGHTON BROOK GS WITS DO NOT POLL,,,52.059596,-0.705838,m3/s,0.085,2026-04-08T11:15:00Z,670
E4372,BROWN MILL USGS,,,51.172939,0.800304,m3/s,0.254,2026-04-08T11:00:00Z,670
E81910,BUCKFASTLEIGH HIGHER TOWN BRIDGE,,,50.482427,-3.783081,m,0.499,2026-04-08T11:00:00Z,669
E14821,BUDBRIDGE GS,,,51.088542,-1.188235,mASD,0.154,2026-04-08T11:15:00Z,671
E14822,BUDBRIDGE GS,,,50.648948,-1.250005,m3/s,0.144,2026-04-08T11:30:00Z,671
E8560,BUILDER CENTRE GRILL,,,51.007923,-0.096141,mASD,0.279,2026-04-08T11:30:00Z,671
E23361,BUNGAY SLUICE,,,52.455936,1.444145,mAOD,3.844,2026-04-08T11:00:00Z,670
E1029,BURGH SLUICE DOORS GIBRALTAR DUAL COMMS,,,53.102208,0.317091,mAOD,2.148,2026-04-08T10:15:00Z,667
E1030,BURGH SLUICE DOORS GIBRALTAR DUAL COMMS,,,53.102208,0.317091,mAOD,1.877,2026-04-08T10:15:00Z,667
E23056,BURNHAM GS NORFOLK,,,52.95094,0.740391,m,0.321,2026-04-08T11:15:00Z,670
E4874,BURNHAM HUMBERSIDE BOREHOLE,,,,,mAOD,10.596,2026-04-08T11:15:00Z,671
E14723,BURNT HOUSE GS,,,50.664904,-1.17575,m3/s,2.158,2026-04-08T11:15:00Z,671
45174,BURROW BH,,,,,m,15.592,2026-04-08T11:15:00Z,670
E3004,BURTON COGGLES GS,,,52.823606,-0.537027,m3/s,0.013,2026-04-08T11:15:00Z,670
45175,BUSSELLS 7A BH,,,,,m,2.285,2026-04-08T07:00:00Z,653
E3540,BUTTERFLY PS,,,51.286091,1.325764,mAOD,1.03,2026-04-08T11:30:00Z,671
E21005,Babraham,River Granta,Babraham,52.131206,0.205231,m,0.128,2026-04-08T11:15:00Z,670
43176,Badbury Rings,Groundwater Level,,50.819754,-2.049215,mAOD,29.71,2026-04-08T11:00:00Z,670
2264TH,Bagnor,Winterbourne Stream,Bagnor,51.422436,-1.350461,mASD,0.164,2026-04-08T11:15:00Z,671
SU46_7,Bagnor Manor OBH,,,,,mAOD,84.569,2026-04-08T05:00:00Z,162
L12013,Bailiff Bridge,Clifton Beck,Bailiff Bridge,53.72267,-1.776636,m,0.053,2026-04-08T11:30:00Z,671
SU46_111,Ball Hill OBH,,,,,mAOD,90.391,2026-04-08T06:00:00Z,163
761260,Bampton Grange,River Lowther,Bampton Grange,54.555577,-2.743431,m,0.375,2026-04-08T11:15:00Z,671
E73824,Bangor,,,54.66518,-5.67045,m,1.708,2026-04-08T11:15:00Z,670
E73839,Bangor,,,54.66518,-5.67045,mAOD,-0.302,2026-04-08T11:15:00Z,670
44243,Bank Barrow,Groundwater Level,Bank Barrow,50.665692,-2.422525,mAOD,50.343,2026-04-08T09:00:00Z,662
26114,Bank House ABH,,,,,mBDAT,14.17,2026-04-08T11:00:00Z,168
50123,Barbrook Bridge,West Lyn River,Barbrook,51.213836,-3.841064,m,0.165,2026-04-08T11:00:00Z,670
E8371,Barcombe,River Ouse,Barcombe,50.915549,0.037303,mAOD,2.806,2026-04-08T11:00:00Z,670
E8654,Barcombe Gates,River Ouse,Barcombe,50.91492,0.038854,mASD,5.435,2026-04-08T11:15:00Z,671
E40411,Bardney,River Witham,Bardney,53.213749,-0.345212,mAOD,0.799,2026-04-08T10:00:00Z,666
E2900-anglian,Bargate Weir,River Witham,Boultham,53.213742,-0.55188,mASD,0.091,2026-04-08T11:15:00Z,675
BB_EAST_UR,Barking Barrier,,,51.515594,0.097044,mAOD,-1.809,2026-04-08T11:15:00Z,671
BB_WEST_UR,Barking Barrier,,,51.515594,0.097044,mAOD,-1.601,2026-04-08T11:15:00Z,671
BB_EAST_DR,Barking Barrierr,,,51.515594,0.097044,mAOD,-1.605,2026-04-08T11:15:00Z,671
L2400,Barmby,,,53.749583,-0.969265,mAOD,2.927,2026-04-08T11:15:00Z,671
L2801,Barmby,River Derwent,Barmby Barrage Upstream,53.74959,-0.969053,---,2.178,2026-04-08T11:15:00Z,671
E73224,Barmouth,,,52.71931,-4.04503,m,3.758,2026-04-08T11:15:00Z,607
E73239,Barmouth,,,52.71931,-4.04503,mAOD,1.318,2026-04-08T11:15:00Z,607
E10924,Barnham,Barnham Rife,Barnham,50.831182,-0.638259,mAOD,1.66,2026-04-08T11:15:00Z,671
F0806,Barnsley,River Dearne,Barnsley,53.560696,-1.473078,m,0.27,2026-04-08T11:15:00Z,671
50198,Barnstaple,River Taw,Barnstaple,51.080046,-4.064537,mAOD,1.664,2026-04-08T11:15:00Z,671
NY54_56,Baronwood,,,,,m,44.804,2026-04-08T07:00:00Z,164
SJ45_168,Barton 2 Obs,,,,,m,0.619,2026-04-08T07:00:00Z,164
E21563,Barton Broad,River Ant,Neatishead,52.735281,1.480458,mAOD,0.378,2026-04-08T11:15:00Z,671
47130,Bastreet,Withy Brook,Trebartha,50.560822,-4.480182,m,0.283,2026-04-08T11:15:00Z,655
F2311,Bat Bridge,Cundall Beck,Cundall,54.145714,-1.36005,m,0.152,2026-04-08T11:15:00Z,671
52161,Bathpool Outfall,Old River Tone,Bathpool,51.02589,-3.066549,m,8.023,2026-04-08T11:15:00Z,670
52162,Bathpool Outfall,River Tone,Bathpool,51.025799,-3.066732,m,7.584,2026-04-08T11:15:00Z,670
L1376,Batley Carlinghow,Batley Beck,Batley Carlinghow  (up stream),53.71811,-1.638949,---,0.214,2026-04-08T11:15:00Z,671
L1374,Batley Savile Street,Batley Beck,Batley Savile Street,53.699596,-1.630383,---,0.339,2026-04-08T11:15:00Z,671
SU27_63,Baydon Hole OBH,,,,,mAOD,140.036,2026-04-08T06:00:00Z,163
690200,Beal Bridge,River Beal,Newhey,53.59901,-2.095119,m,0.205,2026-04-08T11:15:00Z,671
5544TH,Beam Auto Sluice FD,,,51.528524,0.165429,mAOD,-1.073,2026-04-08T11:15:00Z,684
44131,Beaminster,River Brit,Beaminster,50.807196,-2.739279,m,0.287,2026-04-08T11:15:00Z,671
1919TH,Bearbrook FD,,,51.819387,-0.786131,mASD,0.382,2026-04-08T11:15:00Z,671
E14330,Beaulieu,Tide,Beaulieu,50.819049,-1.450824,mAOD,-0.209,2026-04-08T11:00:00Z,670
E27431,Beccles Quay,River Waveney,Beccles,52.464571,1.564233,mAOD,-0.017,2026-04-08T11:15:00Z,670
4150TH,Beddington Park,River Wandle,Beddington,51.373583,-0.138986,mASD,0.319,2026-04-08T11:15:00Z,671
TQ26_143A,Beddington STW Chalk OBH,,,,,mAOD,20.398,2026-04-08T11:16:13Z,812
TQ26_143BU,Beddington STW Upper Sands OBH,,,,,mAOD,17.159,2026-04-08T11:16:13Z,812
693023,Bedford FW,,,53.496402,-2.501086,m,2.03,2026-04-08T11:15:00Z,671
E65701,Bedford Road Sluice,River Nene,Great Houghton,52.229163,-0.868182,mAOD,0.985,2026-04-08T10:00:00Z,664
E9140,Beeding Bridge,River Adur,Upper Beeding,50.882836,-0.306828,mAOD,0.776,2026-04-08T09:45:00Z,665
SU56_220,Beenham OBH,,,,,mAOD,50.109,2026-04-08T05:00:00Z,162
52157,Beerwall Upstream,River Sowy,Othery,51.079805,-2.869413,m,3.999,2026-04-08T11:15:00Z,671
731013,Beetham Weir,River Bela,Beetham,54.218531,-2.774107,m,0.405,2026-04-08T11:15:00Z,671
51107,Beggearn Huish,Washford River,Washford,51.14633,-3.373795,m,0.248,2026-04-08T11:15:00Z,671
021041,Belford,Belford Burn,Belford,55.598101,-1.830134,m,0.194,2026-04-08T11:15:00Z,671
SD54_18D,Bell Lane,,,,,m,12.076,2026-04-08T07:00:00Z,152
E8730,Bell Lane Grill,Winterbourne Stream,Lewes,50.869751,4.3e-05,mAOD,4.881,2026-04-08T11:00:00Z,670
2702TH,Bell Weir,River Thames,Hythe End,51.438166,-0.537257,mASD,0.159,2026-04-08T11:15:00Z,671
46123,Bellever,East Dart River,Bellever,50.582293,-3.898034,m,0.549,2026-04-08T11:00:00Z,670
023037,Bellingham,River North Tyne,Bellingham,55.142852,-2.261953,m,0.208,2026-04-08T11:15:00Z,671
4684,Belper,Coppice Brook,Belper,53.029005,-1.458345,mASD,0.119,2026-04-08T11:30:00Z,671
4883,Belper LVL,,,53.029381,-1.486357,mASD,2.042,2026-04-08T11:15:00Z,671
L0962,Bentley Ings Screen,Fowler Bridge Drain,Bentley Ings Screen,53.542867,-1.127873,mAOD,2.613,2026-04-08T11:00:00Z,670
531192,Berkeley,Little Avon River,Berkeley,51.686426,-2.460679,m,0.255,2026-04-08T11:30:00Z,671
SP90_69,Berkhamsted Dudswell Dudswell Lane,,,,,mAOD,113.523,2026-04-08T10:00:00Z,665
SP90_71,Berkhamsted Northchurch St Marys School,,,,,mAOD,109.189,2026-04-08T10:00:00Z,665
021999,Berwick,River Tweed,Berwick,55.767093,-2.005082,m,-0.842,2026-04-08T11:15:00Z,671
2015,Besford Bridge,Bow Brook,Pershore,52.114425,-2.108012,mASD,0.231,2026-04-08T11:15:00Z,671
690420,Bessy Brook,Bessy Brook,Bolton,53.574738,-2.496394,m,0.048,2026-04-08T11:30:00Z,671
SU48_90,Betterten OBH,,,,,mAOD,106.551,2026-04-08T10:00:00Z,167
L3207,Beverley Waterside Pumping Station,Beverley and Barmston Drain,Beverley Waterside Pumping Station,53.83905,-0.39525,---,-0.389,2026-04-08T11:15:00Z,671
2001,Bewdley,River Severn,Bewdley,52.383563,-2.322438,m3/s,0.723,2026-04-08T11:15:00Z,671
46129,Bickington,River Lemon,Bickington,50.539272,-3.702255,m,0.475,2026-04-08T11:00:00Z,670
2615,Bidford on Avon,River Avon,Bidford on Avon,52.164097,-1.857348,mASD,1.339,2026-04-08T11:15:00Z,671
SJ28_34,Bidston Hill,,,,,m,35.291,2026-04-08T06:00:00Z,163
E19023,Biggleswade,River Ivel,Biggleswade,52.085111,-0.267906,mASD,0.273,2026-04-08T11:15:00Z,670
E23036,Billingford,River Waveney,Oakley,52.359187,1.182279,m,0.236,2026-04-08T11:15:00Z,671
L3915,Billingham Pennington Close,Cowbridge Beck,Billingham Pennington Close,54.616236,-1.285486,m,0.09,2026-04-08T11:30:00Z,671
E4803,Billinghay,Billinghay Skirth,Billinghay,53.077892,-0.274288,mASD,0.485,2026-04-08T11:15:00Z,671
F1608,Bingley,River Aire,Catcliffe Drain,53.85124,-1.842838,m,0.276,2026-04-08T11:15:00Z,671
5000,Bings Heath OBH,,,,,mBDAT,4.561,2026-04-08T09:00:00Z,331
SJ38_82,Birkenhead Park,,,,,m,-3.766,2026-04-08T06:00:00Z,150
L1815,Birkin Holme Washlands,River Aire,Broomfleet Weighton Lock,53.731594,-1.147332,m,0.658,2026-04-08T11:15:00Z,671
L1303,Birkwood,River Calder,Birkwood,53.709969,-1.464095,m,0.835,2026-04-08T11:30:00Z,671
4662,Birmingham Bournville Woodbrooke Road,,,52.42894,-1.942444,mASD,0.285,2026-04-08T11:30:00Z,671
4650,Birmingham Lodge Hill Elford Road,,,52.44592,-1.959798,mASD,0.052,2026-04-08T11:30:00Z,671
4653,Birmingham Perry Beeches Beeches Road,,,52.538596,-1.909791,mASD,0.22,2026-04-08T11:30:00Z,671
4704,Birmingham Witton Atlas Bridge,,,52.515907,-1.88041,mAOD,90.02,2026-04-08T11:30:00Z,671
L1377,Birstall Smithies,Batley Beck,,53.727802,-1.661253,m,0.032,2026-04-08T11:15:00Z,671
9404SE,Bishop Sutton CB GWL,,,,,mAOD,77.619,2026-04-08T06:00:23Z,170
E2846,Bishopbridge,River Rase,Bishopbridge,53.406624,-0.44906,mASD,0.139,2026-04-08T11:15:00Z,671
055028_TG_9302,Bishops Frome,River Frome (Wye),Bishops Frome,52.137017,-2.488532,mASD,0.23,2026-04-08T11:15:00Z,671
5141TH,Bishops Stortford, Grange Paddocks,River Stort,Bishop's Stortford,51.878177,0.160906,mASD,0.077,2026-04-08T11:15:00Z,671
E12483,Bishopstoke,River Itchen,Bishopstoke,50.969991,-1.33715,mASD,0.772,2026-04-08T11:15:00Z,671
1926,Bissell Wood Deep OBH,,,,,mBDAT,19.404,2026-04-08T09:15:00Z,663
53131,Bitton,River Boyd,Bitton,51.426965,-2.459703,m,0.184,2026-04-08T11:15:00Z,671
1285SO,Black Bull Road,Pent Stream,Folkestone,51.085655,1.177662,mAOD,0.097,2026-04-08T11:15:00Z,671
713118,Blackburn Waterfall,River Darwen,Blackburn,53.736803,-2.496786,m,0.45,2026-04-08T11:15:00Z,671
690205,Blackford Bridge,River Roch,Bury,53.565791,-2.293258,m,0.128,2026-04-08T11:15:00Z,671
578,Blackstone OBH,,,,,mBDAT,4.808,2026-04-08T09:15:00Z,663
L24012,Blacktoft,River Ouse,Blacktoft,53.707432,-0.725879,mAOD,2.097,2026-04-08T11:15:00Z,671
4088,Blacktoft TL,,,53.707031,-0.725316,mASD,2.097,2026-04-08T11:15:00Z,671
754008,Blennerhasset Bridge,River Ellen,Blennerhasset,54.762529,-3.278022,m,0.683,2026-04-08T11:30:00Z,671
SU46_139,Blind Mans Gate OBH,,,,,mAOD,98.789,2026-04-08T05:00:00Z,162
022999,Blyth,North Sea,Blyth,55.12861,-1.494986,mAOD,-0.667,2026-04-08T11:15:00Z,671
4159,Blythe Bridge,River Blithe,,52.970005,-2.073464,mASD,0.318,2026-04-08T11:15:00Z,671
SU37_60,Bockhampton OBH,,,,,mAOD,120.632,2026-04-08T06:00:00Z,163
2225,Bodiam Avenue,Daniels Brook,Gloucester,51.832287,-2.270144,mASD,0.049,2026-04-08T11:15:00Z,671
2425,Bodiam Avenue Relief Channel,Daniels Brook,Gloucester,51.832287,-2.270144,mASD,0.372,2026-04-08T11:15:00Z,671
1437TH,Bodicote,Sor Brook,Bodicote,52.028582,-1.326852,mASD,-0.21,2026-04-08T11:15:00Z,671
49182,Bodmin Dunmere,River Camel,Bodmin,50.474131,-4.757115,m,1.007,2026-04-08T10:00:00Z,665
SE46BBN0RD,Bogbridge North Drift,,,,,mAOD,13.747,2026-04-08T06:00:00Z,649
E10943,Bognor,Aldingbourne Rife,Aldingbourne,50.797459,-0.667903,mAOD,-0.01,2026-04-08T11:15:00Z,671
693515,Bollington Mill,River Bollin,Little Bollington,53.380045,-2.406589,m,0.348,2026-04-08T11:15:00Z,671
690481,Bolton Hillview Road,,,53.599855,-2.435429,m,0.5,2026-04-08T11:30:00Z,671
710200,Bolton by Bowland Hellifield rd,Kirk Beck,Bolton by Bowland,53.940669,-2.326107,m,0.073,2026-04-08T11:30:00Z,671
2667,Bondend Road,River Twyver,Gloucester,51.834606,-2.193371,mASD,0.322,2026-04-08T11:15:00Z,671
SU73_97,Bordon OBH,,,,,mAOD,66.619,2026-04-08T04:00:00Z,161
2608,Boreton Bridge,Cound Brook,,52.656574,-2.716652,mASD,0.196,2026-04-08T11:30:00Z,671
2438SO,Borough Grove,Petersfield Stream,Petersfield,51.000834,-0.944385,mAOD,59.167,2026-04-08T11:30:00Z,671
48138,Boscadjack,River Cober,Wendron,50.131125,-5.255319,m,0.4,2026-04-08T04:00:00Z,642
49174,Boscastle County Bridge,River Valency,Boscastle,50.68979,-4.692972,m,0.411,2026-04-08T04:15:00Z,643
E11090,Bosham Moreton Road,Bosham Stream,Bosham,50.831317,-0.857887,mAOD,0.343,2026-04-08T11:00:00Z,670
E13300,Bossington,Wallop Brook,Bossington,51.080218,-1.523543,mAOD,0.312,2026-04-08T11:15:00Z,670
764070,Botcherby Bridge, Carlisle,River Petteril,Botcherby, Carlisle,54.89341,-2.910796,m,0.646,2026-04-08T11:15:00Z,671
152503002,Botley Mill Stream RL,,,50.91869,-1.265211,mASD,0.432,2026-04-08T10:45:00Z,668
692117,Bottoms Reservoir,,,53.470933,-1.965681,m,0.049,2026-04-08T11:15:00Z,671
SU85_47,Bourley Lane OBH,,,,,mAOD,67.921,2026-04-08T10:00:00Z,167
E24805,Bourn Brook,Bourn Brook,Bourn,52.192643,-0.064443,mASD,0.254,2026-04-08T11:15:00Z,670
2645TH,Bourne Ditch at Spitalfields,,,51.468767,-0.620387,mAOD,23.254,2026-04-08T11:15:00Z,671
3345THF,Bourne Hall GS,,,51.350352,-0.250864,m3/s,0.108,2026-04-08T11:30:00Z,671
3345TH,Bourne Hall Ponds at Ewell,,,51.350352,-0.250864,mASD,0.19,2026-04-08T11:15:00Z,671
1029TH,Bourton Dickler,River Dikler,Little Rissington,51.874767,-1.740083,mASD,-0.221,2026-04-08T11:00:00Z,670
E81959,Bovey Tracey Wifford Footbridge,River Bovey Tributary,Bovey Tracey Wifford Footbridge,50.581483,-3.667814,m,0.421,2026-04-08T06:00:00Z,649
738345,Bow Bridge Abbey Road,Poaka Beck,Dalton In Furness,54.155019,-3.184714,m,0.173,2026-04-08T11:15:00Z,671
SU09_163,Bow Wow OBH,,,,,mAOD,88.252,2026-04-08T07:00:00Z,164
TL10_113,Bowbridge OBH,,,,,mAOD,82.91,2026-04-08T11:00:00Z,669
SP00_142,Bowling Green Lane OBH,,,,,mAOD,111.883,2026-04-08T07:00:00Z,164
F3004,Boynton,Gypsey Race,Boynton,54.093099,-0.263772,m,0.282,2026-04-08T11:15:00Z,671
SJ38_88,Brackenwood GC,,,,,m,23.829,2026-04-08T08:00:00Z,165
L1656,Bradford Greenside,Bradford Beck,Bradford Greenside,53.795159,-1.791858,m,0.926,2026-04-08T11:30:00Z,671
531118,Bradley Bridge,Bradley Brook,Winterbourne,51.521892,-2.521122,m,-0.014,2026-04-08T11:15:00Z,671
SU47_26,Bradley Wood OBH,,,,,mAOD,102.574,2026-04-08T10:00:00Z,167
E9531,Bradney,Kings Sedgemoor Drain,Bradney Bridgwater,51.148548,-2.945191,m,2.222,2026-04-08T11:30:00Z,671
E71333,Bradninch Hele Station Road,River Culm,,50.812445,-3.429297,m,1.12,2026-04-08T11:30:00Z,671
4693,Bradwell,Bradwell Brook,Bradwell,53.328427,-1.738804,mASD,0.097,2026-04-08T11:30:00Z,671
4827TH,Bragbury Park,Stevenage Brook,Bragbury End,51.874477,-0.149495,mASD,0.055,2026-04-08T11:15:00Z,671
E31329,Braintree,Pods Brook,,51.881322,0.517361,mAOD,0.222,2026-04-08T04:00:00Z,641
E24808,Bramfield,Bramfield Watercourse,,52.309767,1.520192,mAOD,0.18,2026-04-08T11:15:00Z,670
692665,Bramhall Green Bridge Lane,Micker Brook,Bramhall Green,53.374217,-2.157174,m,0.163,2026-04-08T07:00:00Z,653
E47518,Brampton,Brampton Brook,Brampton,52.321266,-0.23126,m,9.177,2026-04-08T11:30:00Z,671
763404,Brampton Moat Side,Brampton Beck,Brampton,54.942516,-2.73365,m,0.054,2026-04-08T11:30:00Z,671
E21713,Brampton Racecourse,Alconbury Brook,Brampton,52.330595,-0.227967,m,0.137,2026-04-08T11:15:00Z,670
E21397,Brandeston,River Deben,Brandeston,52.194631,1.273844,mAOD,0.306,2026-04-08T11:15:00Z,671
E40684,Brandy Wharf,River Ancholme,Brandy Wharf,53.460884,-0.474196,mAOD,0.441,2026-04-08T10:00:00Z,666
E13851,Bransbury,River Dever,Bransbury,51.177844,-1.39845,mAOD,0.608,2026-04-08T11:00:00Z,670
2086,Bransford,River Teme,Bransford,52.177055,-2.28833,mASD,0.694,2026-04-08T11:15:00Z,671
L3243,Bransholme Great Culvert Pumping Station,Holderness Drain,Bransholme Great Culvert Pumping Station,53.804698,-0.309166,mAOD,-1.273,2026-04-08T11:15:00Z,671
50124,Braunton,River Caen (Tidal),Braunton,51.100527,-4.16425,m,2.407,2026-04-08T11:00:00Z,670
SU97_78A,Bray,Groundwater Level,Egham,51.500126,-0.684921,mAOD,17.863,2026-04-08T11:15:00Z,671
2607TH,Bray Lock,River Thames,Bray,51.509305,-0.69032,---,2.573,2026-04-08T11:15:00Z,671
2854TH,Braybourne Close,,,51.549595,-0.481215,mASD,0.127,2026-04-08T11:15:00Z,671
L12041,Brearley,River Calder,,53.729568,-1.961304,m,0.253,2026-04-08T11:15:00Z,671
4687,Breaston,Golden Brook,Breaston,52.901545,-1.321599,mASD,0.396,2026-04-08T11:30:00Z,671
692510,Bredbury,,,53.414388,-2.155893,m,0.371,2026-04-08T11:15:00Z,671
2128,Bredon,River Avon,Bredon,52.03494,-2.116566,---,0.845,2026-04-08T11:15:00Z,671
690404,Breightmet,,,53.580581,-2.375269,m,0.039,2026-04-08T11:30:00Z,671
50150,Brendon,East Lyn River,Brendon,51.219143,-3.751991,m,1.369,2026-04-08T09:00:00Z,662
4193,Brentingby Dam GATE,,,52.760041,-0.853952,mASD,1.737,2026-04-08T11:30:00Z,671
E13463,Brewery Grill,Oxlease Drain,Romsey,50.992066,-1.499624,mAOD,16.917,2026-04-08T11:00:00Z,670
47131,Bridge Rule,River Tamar,Bridge Rule,50.799229,-4.450269,m,0.319,2026-04-08T06:00:00Z,650
690185,Bridge Street Shaw,River Beal,Shaw,53.586045,-2.088957,m,0.073,2026-04-08T11:15:00Z,671
684027,Bridge Trafford,River Gowy,Bridge Trafford,53.234132,-2.827991,m,0.302,2026-04-08T11:15:00Z,671
SU56_119,Briff Lane OBH,,,,,mAOD,63.539,2026-04-08T10:00:00Z,144
E2790,Brigg,River Ancholme,Brigg,53.550068,-0.501979,mASD,1.202,2026-04-08T11:15:00Z,683
L1202,Brighouse,River Calder,Brighouse,53.701444,-1.793955,m,-1.198,2026-04-08T11:15:00Z,671
692825,Brighton Grove Debris Screen,Platt Brook,Fallowfield,53.449463,-2.218058,m,0.198,2026-04-08T11:15:00Z,671
SU47_135,Brightwalton Holt OBH,,,,,mAOD,124.774,2026-04-08T10:00:00Z,167
E1013,Brigsley,Waithe Beck,Brigsley,53.496174,-0.11262,mASD,0.327,2026-04-08T11:15:00Z,670
E1633,Brigstock,Harpers Brook,Brigstock,52.45855,-0.611724,mAOD,0.026,2026-04-08T11:15:00Z,670
692524,Brinksway,River Mersey,Stockport,53.407306,-2.174445,m,0.58,2026-04-08T11:15:00Z,671
531183,Brinkworth Brook,Brinkworth Brook,Royal Wootton Bassett,51.546208,-1.944367,m,0.36,2026-04-08T11:15:00Z,671
E6487,Bristol Bedminster St Johns Lane Downstream,River Avon,Malago,51.436946,-2.598877,m,0.334,2026-04-08T11:30:00Z,671
E6480,Bristol Bedminster St Johns Lane Upstream,River Avon,Malago,51.436937,-2.598863,m,0.331,2026-04-08T11:30:00Z,671
531109,Bristol Harbour Passage Street,Bristol Frome,Bristol Harbour Passage Street,51.45411,-2.586653,m,6.109,2026-04-08T11:15:00Z,671
E2532,Bristol Netham Lock,River Avon,Bristol,51.452001,-2.55449,m,6.043,2026-04-08T11:30:00Z,671
E30010,Bristol Wade Street,River Frome,Bristol,51.45965,-2.581039,m,6.002,2026-04-08T11:30:00Z,671
4703,Broadeye Bridge,River Sow,Broadeye Bridge, Stafford,52.807366,-2.122824,mASD,0.489,2026-04-08T11:15:00Z,671
3088TH,Broadmead Gates,,,51.295832,-0.544825,mAOD,23.001,2026-04-08T11:00:00Z,670
2529,Broadway Flood Storage Area,Badsey Brook,,52.034502,-1.868386,mASD,0.952,2026-04-08T11:30:00Z,671
F2508,Broadway Foot,River Rye,Hawnby,54.287705,-1.141251,m,0.132,2026-04-08T11:15:00Z,671
SU96_70,Brock Cottage OBH,,,,,mAOD,40.344,2026-04-08T10:00:00Z,167
3269TH,Brockham FWS,,,51.233732,-0.288379,mASD,0.369,2026-04-08T11:15:00Z,671
E26141,Bromham,River Great Ouse,Bromham,52.145941,-0.521734,mAOD,29.1,2026-04-08T11:15:00Z,671
L2325,Brompton,Brompton Beck,Brompton,54.363181,-1.418526,m,0.094,2026-04-08T11:15:00Z,671
2607,Bromsberrow,Glynch Brook,Bromsberrow,51.996906,-2.373352,mASD,0.098,2026-04-08T11:15:00Z,671
2544,Bromsgrove Burcot Avenue,Spadesbourne Brook,,52.342826,-2.051161,mASD,0.037,2026-04-08T11:30:00Z,671
2545,Bromsgrove Factory Lane,Spadesbourne Brook,,52.331364,-2.068303,mASD,0.522,2026-04-08T11:30:00Z,671
4165,Brookhouse Farm,Ford Green Brook,,53.083974,-2.178955,mASD,0.21,2026-04-08T11:15:00Z,671
3089TH,Brooklands,River Wey,Byfleet,51.346115,-0.465049,mASD,0.488,2026-04-08T10:00:00Z,666
SU58_119,Brookside Blewbury OBH,,,,,mAOD,63.931,2026-04-08T06:00:00Z,163
4878,Brookvale Road,River Tame,Brookvale Road,52.515925,-1.880351,mASD,0.529,2026-04-08T11:15:00Z,671
1913,Broome Lodge Farm OBH,,,,,mBDAT,7.458,2026-04-08T09:15:00Z,663
5912,Broome Mill Farm OBH,,,,,mBDAT,10.296,2026-04-08T09:15:00Z,663
0560,Broome OBH,,,,,mBDAT,13.606,2026-04-08T09:15:00Z,663
L3402,Brough West Clough,West Clough,Brough West Clough,53.709091,-0.542562,---,1.669,2026-04-08T11:30:00Z,671
SE77BRT0CO,Broughton,,,,,mAOD,18.337,2026-04-08T06:00:00Z,650
NY00_328,Brown Bank Layby,,,,,m,5.225,2026-04-08T05:00:00Z,162
E4370,Brown Mill,Great Stour,Hothfield,51.171609,0.799508,mASD,0.232,2026-04-08T11:00:00Z,670
E11350,Browndown,River Alver,Gosport,50.791953,-1.170468,mAOD,0.201,2026-04-08T11:15:00Z,671
2512SO,Brownwich Pond,Brownwich Stream,Tichfiled,50.830654,-1.263797,---,1.075,2026-04-08T11:00:00Z,669
SJ45_155,Broxton Obs,,,,,m,24.985,2026-04-08T10:00:00Z,167
SJ88_93,Bruntwood Hall,,,,,m,14.455,2026-04-08T07:00:00Z,164
52208,Bruton Dam,River Brue,Bruton,51.116056,-2.430837,mASD,0.508,2026-04-08T11:15:00Z,671
L2803,Bubwith Bridge,River Derwent,Bubwith,53.819066,-0.927565,mAOD,2.478,2026-04-08T11:15:00Z,671
46165,Buckfastleigh Higher Town Bridge,River Mardle,Buckfastleigh,50.482427,-3.783081,m,0.503,2026-04-08T11:00:00Z,670
E71283,Buckfastleigh Kingcombe Court,Dean Burn,,50.48107,-3.775926,m,0.608,2026-04-08T11:30:00Z,671
2150TH,Bucklebury,River Pang,Bucklebury,51.435635,-1.201665,mASD,0.235,2026-04-08T11:00:00Z,670
2149aTH,Bucklebury TEMP RL,,,51.435686,-1.202527,mASD,66.161,2026-04-08T11:30:00Z,671
2834,Buckley Farm,Pentre Brook,On Prentre Brook approx 400m from confluence with River Severn.,52.743972,-2.943914,mASD,0.327,2026-04-08T11:30:00Z,671
E14820,Budbridge,Eastern Yar,Budbridge,50.649055,-1.249848,mAOD,0.154,2026-04-08T11:30:00Z,671
E84049,Budleigh Salterton Station Road,Knowle Stream,,50.630009,-3.328259,m,0.119,2026-04-08T11:00:00Z,669
E85263,Budleigh South Farm Road West Bridge,River Otter,,50.639129,-3.314657,m,0.837,2026-04-08T11:00:00Z,669
E84429,Budleigh South Farm Road White Bridge,River Otter,,50.639603,-3.309296,m,0.941,2026-04-08T06:00:00Z,649
E4821,Bugbrooke,Bugbrooke Brook,Bugbrooke,52.210687,-1.013543,mAOD,75.88,2026-04-08T11:15:00Z,671
4203,Bulwell,River Leen,Bulwell,53.009557,-1.190048,mASD,0.418,2026-04-08T11:15:00Z,671
E21856,Bures Bridge,River Stour,Bures,51.972195,0.774544,mASD,0.288,2026-04-08T11:15:00Z,670
2884,Burlington,River Worfe,,52.695435,-2.3242,mASD,0.292,2026-04-08T11:30:00Z,671
4683,Burlington Road,River Wye,Buxton,53.256813,-1.921018,mASD,0.532,2026-04-08T11:30:00Z,671
F2120,Burn Bridge,River Crimple,Burn Bridge,53.962216,-1.568837,m,0.071,2026-04-08T11:30:00Z,671
E14722,Burnt House,Eastern Yar,Sandown,50.664649,-1.176646,mASD,0.504,2026-04-08T11:15:00Z,671
SJ37_030,Burton Point Deep,,,,,m,0.365,2026-04-07T06:00:00Z,139
3803TH,Bury Farm FSA FD,,,51.627195,-0.287063,mASD,6.776,2026-04-08T11:15:00Z,671
SD44_24,Butlers Arms Farm T38,,,,,m,3.793,2026-04-08T05:00:00Z,162
SJ46_114,Butterbache,,,,,m,1.593,2026-04-08T07:00:00Z,164
738360,Butts Beck James Terrace,Poaka Beck,Dalton In Furness,54.16005,-3.176664,m,0.019,2026-04-08T11:15:00Z,671
055021_TG_305,Butts Bridge,River Lugg,Butts Bridge,52.226571,-2.730348,mASD,0.918,2026-04-08T11:15:00Z,671
E8190,Buxted,River Uck,Buxted,50.989456,0.127659,mASD,0.12,2026-04-08T11:15:00Z,671
4197,Buxton,River Wye,Buxton,53.2536,-1.904027,mASD,0.204,2026-04-08T11:15:00Z,671
4682,Buxton,Hogshaw Brook,Buxton,53.261791,-1.906782,mASD,0.242,2026-04-08T11:30:00Z,671
SD44_13,Byerworth Bridge T14,,,,,m,7.63,2026-04-08T05:00:00Z,162
055014_TG_306,Byton,River Lugg,Byton,52.276841,-2.932709,mASD,0.452,2026-04-08T11:15:00Z,671
E6460,CALNE PRINCE CHARLES DRIVE,,,51.439502,-1.994851,m,0.149,2026-04-08T06:00:00Z,649
E24518,CAPPENHAM GS,,,52.131792,-0.96199,m3/s,0.647,2026-04-08T11:15:00Z,671
E14812,CARISBROOKE GS,,,50.695425,-1.305474,m3/s,0.261,2026-04-08T11:15:00Z,671
040301001,CARISBROOKE GWL,,,,,mAOD,28.294,2026-04-08T11:17:29Z,812
445529,CERNE ABBAS RESERVOIR WITS,,,50.811976,-2.478248,m,0.224,2026-04-08T11:30:00Z,671
E11600,CHALTON GWL,,,,,mAOD,51.82,2026-04-08T11:10:48Z,816
E2892,CHAPEL ST LEONARDS GS,,,53.228157,0.330271,m,0.124,2026-04-08T11:15:00Z,671
E3044,CHAPEL ST LEONARDS GS,,,53.228157,0.330271,m3/s,0.184,2026-04-08T11:15:00Z,671
E24813,CHEDISTON LS,,,52.347523,1.460671,mAOD,18.06,2026-04-08T11:15:00Z,671
E24075,CHELMSFORD GATES SLUICE,,,51.730014,0.484859,m,22.735,2026-04-08T10:02:37Z,695
9414SE,CHERITON WOOD GWL,,,,,mAOD,83.266,2026-04-08T06:00:17Z,170
43181,CHESCOMBE FARM DNP3 NEW,,,,,m,71.8,2026-04-08T10:00:00Z,666
E9260,CHESSBRIDGE GS,,,50.942742,-0.268412,mAOD,4.65,2026-04-08T11:15:00Z,671
E2950,CHESTNUT STREET GWL,,,,,mAOD,15.121,2026-04-08T11:07:45Z,1313
E2280,CHEVENEY GATE RL,,,51.215819,0.444707,mAOD,11.293,2026-04-08T11:15:00Z,671
53160,CHEW MAGNA RESERVOIR,,,51.36697,-2.621881,mAOD,54.353,2026-04-08T11:15:00Z,671
E14262,CHEWTON GLEN GS,,,50.745435,-1.683407,m3/s,0.058,2026-04-08T10:00:00Z,665
44148,CHIDEOCK RL,,,50.732034,-2.818833,m,0.233,2026-04-08T11:15:00Z,671
E13826,CHILBOLTON BACK CARRIER,,,51.152258,-1.450712,m3/s,0.663,2026-04-08T11:15:00Z,670
E13820,CHILBOLTON EMGS,,,51.153011,-1.450189,mAOD,40.486,2026-04-08T11:00:00Z,670
E13825,CHILBOLTON USGS,,,51.152238,-1.450298,m3/s,7.902,2026-04-08T11:15:00Z,670
E11190,CHILGROVE HOUSE GWL,,,,,mAOD,60.043,2026-04-08T11:17:25Z,1314
53156,CHIPPENHAM GATE,,,51.457857,-2.117851,mAOD,43.18,2026-04-08T11:15:00Z,671
44134,CHISWELL,,,50.56449,-2.452469,mAOD,2.479,2026-04-08T11:15:00Z,671
44135,CHISWELL,,,50.56449,-2.452469,mAOD,0.904,2026-04-08T11:15:00Z,671
44137,CHISWELL,,,50.56449,-2.452469,mAOD,2.48,2026-04-08T11:15:00Z,671
46136,CHUDLEIGH BRIDGE,,,50.595093,-3.61596,m3/s,0.684,2026-04-08T11:15:00Z,671
E2783,CHURCH BRIDGE GS EMPINGHAM,,,52.663783,-0.595588,mASD,0.069,2026-04-08T11:15:00Z,671
E22844,CHURCH END FGS GREAT DUNMOW DUAL COMMS,,,51.884456,0.365489,m3/s,0.197,2026-04-08T11:15:00Z,670
E10910,CHURCH FARM PIT RL,,,,,mAOD,14.043,2026-04-08T11:30:00Z,671
E14160,CLANVILLE GATE GWL,,,,,mAOD,88.815,2026-04-08T11:00:00Z,670
E2987,CLAYPOLE MILL R WITHAM GS,,,53.022401,-0.746331,m3/s,1.884,2026-04-08T11:05:00Z,673
E1056,CLAYTHORPE GREAT EAU GS,,,53.291737,0.122926,m,0.315,2026-04-08T10:00:00Z,666
E1065,CLIFFORD HILL LOCK SLUICE GSM NORTHAMPTON,,,52.238756,-0.823183,mAOD,52.198,2026-04-08T10:00:00Z,665
E2966,CLIFFORD HILL LOCK SLUICE GSM NORTHAMPTON,,,52.238756,-0.823183,mAOD,50.964,2026-04-08T10:00:00Z,665
E4800,CLIPSTON FSR WITS,,,52.422655,-0.954718,mAOD,124.825,2026-04-08T11:15:00Z,671
E22300-anglian,CLIPSTONE BROOK GS LEIGHTON BUZZARD WITS DO NOT POLL MANUALLY,,,51.924207,-0.634231,m3/s,0.063,2026-04-08T11:15:00Z,671
E2728,CLOVES BRIDGE GS SALTFLEETBY ALL SAINTS,,,53.390809,0.205849,mAOD,1.651,2026-04-08T10:00:00Z,665
E85183,COLDRIDGE PARK MILL BRIDGE,,,50.862356,-3.853157,m,0.467,2026-04-08T11:00:00Z,669
49128,COLLIFORD TO BE WITSD,,,50.509842,-4.568841,m,0.075,2026-04-08T09:00:00Z,662
SP10_96,COLN ST ALDWYN OBH,,,,,mAOD,103.258,2026-04-08T07:00:00Z,164
E24322,COLNE TIDE BARRIER WIVENHOE WITS,,,51.852917,0.963605,mAOD,-0.599,2026-04-08T11:15:00Z,670
E23069,COLNEY FGS,,,52.627666,1.222621,m3/s,0.846,2026-04-08T10:00:00Z,666
E11070,COMPTON GWL,,,,,mAOD,51.51,2026-04-08T05:49:44Z,175
E13401,CONAGAR BRIDGE USGS,,,50.941433,-1.495969,m3/s,2.501,2026-04-08T11:15:00Z,670
E9183,COOLHAM USGS,,,50.999641,-0.402814,mAOD,12.674,2026-04-08T11:15:00Z,671
E9184,COOLHAM USGS,,,50.999641,-0.402814,m3/s,0.022,2026-04-08T11:15:00Z,671
E7080,COOMBE BRIDGE GS,,,50.896388,0.412165,m3/s,0.017,2026-04-08T11:30:00Z,671
E7083,COOMBE BRIDGE GS,,,50.896388,0.412165,mASD,0.172,2026-04-08T11:30:00Z,671
46131,COOMBE CELLARS,,,50.5411,-3.550902,Knots,7.79,2026-04-08T11:15:00Z,671
46132,COOMBE CELLARS,,,50.5411,-3.550902,deg,339.498,2026-04-08T11:15:00Z,671
E22779,COPFORD HALL FGS DUAL COMMS,,,51.955363,0.427323,m3/s,1.229,2026-04-08T11:15:00Z,670
48112,COPPERHOUSE,,,50.188345,-5.422438,m,0.267,2026-04-08T11:15:00Z,669
E1073,CORBY SOUTH GS,,,52.488241,-0.674797,m,0.026,2026-04-08T11:30:00Z,670
E7300,CORBY STOCKS LANE BRIDGE WITS,,,52.491849,-0.682303,m,97.768,2026-04-07T13:30:00Z,583
530173,CORSHAM AQUEDUCT,,,51.425272,-2.192082,mAOD,0.059,2026-04-08T11:30:00Z,671
E19865,COSTESSEY MILL SLUICE,,,52.668256,1.218212,m3/s,3.034,2026-04-08T11:24:31Z,689
E19866,COSTESSEY MILL SLUICE,,,52.668256,1.218212,m3/s,3.03,2026-04-08T11:24:31Z,694
E23081,COSTESSEY PARK GS,,,52.655971,1.206957,m,0.165,2026-04-08T11:15:00Z,671
E4882,COVENHAM ST MARY GS WITS,,,53.428861,0.01433,mAOD,3.527,2026-04-08T11:15:00Z,671
E7843,COWBEECH GS,,,50.91242,0.290959,m3/s,0.101,2026-04-08T11:30:00Z,671
E24207,CRABBS BRIDGE GS GSM HATFIELD PEVEREL DUAL COMMS,,,51.767053,0.560814,mASD,0.238,2026-04-08T11:15:00Z,670
E15262,CRAYFORD GS,,,51.449762,0.173833,m3/s,0.401,2026-04-08T11:15:00Z,671
530189,CRIBBS CAUSEWAY RESERVOIR,,,51.521724,-2.61005,mAOD,42.544,2026-04-08T11:15:00Z,670
E1657,CRINGLE BROOK GS GREAT PONTON,,,52.856717,-0.628208,m,0.209,2026-04-08T11:15:00Z,671
E1658,CRINGLE BROOK GS GREAT PONTON,,,52.856717,-0.628208,m3/s,0.382,2026-04-08T11:00:00Z,670
E21773,CRINGLEFORD SLUICE,,,52.606338,1.246167,mAOD,6.85,2026-04-08T11:15:00Z,671
E2727,CROFT LANE PS WAINFLEET,,,53.11614,0.241254,mAOD,1.549,2026-04-08T10:00:00Z,665
E11321,CROSSLAND DRIVE RL,,,50.860266,-0.976234,mASD,0.109,2026-04-08T11:00:00Z,670
E6621,CROWHURST WEIR,,,51.01189,0.398508,mASD,0.153,2026-04-08T11:15:00Z,671
SO6621,CROWHURST WEIR,,,51.01189,0.398508,mAOD,19.432,2026-04-08T11:30:00Z,671
E71003,CULLOMPTON BAULK BRIDGE,,,50.839525,-3.391152,m,2.273,2026-04-08T11:00:00Z,669
2833,Cae Howel,New Cut,Melverley,52.747481,-2.972523,mASD,0.95,2026-04-08T11:30:00Z,671
3015TH,Caker Stream,Caker Stream,Alton,51.140148,-0.959908,mASD,0.111,2026-04-08T11:15:00Z,671
2940SO,Calbourne GS,,,50.678823,-1.406293,mASD,0.347,2026-04-08T06:00:00Z,649
9432SO,Calbourne New Barn GWL,,,,,mAOD,55.39,2026-04-08T05:00:49Z,169
765005,Caldbeck Gill Beck Bridge,Gill Beck,Caldbeck,54.749088,-3.05221,m,0.322,2026-04-08T11:30:00Z,671
4039,Calthorpe Park,River Rea,Edgbaston,52.460104,-1.897221,mASD,0.107,2026-04-08T11:15:00Z,671
SU57_159,Calvesleys Farm OBH,,,,,mAOD,78.19,2026-04-08T05:00:00Z,155
E60501,Cambridge Jesus Lock,River Cam,Cambridge,52.212835,0.120872,mASD,0.715,2026-04-08T10:00:00Z,666
49163,Camelford Enfield Park,River Camel,Camelford,50.623763,-4.67804,m,0.251,2026-04-08T11:30:00Z,670
693120,Canal Road,,,52.677618,-2.340057,m,0.719,2026-04-08T11:15:00Z,671
L0301,Canklow Regulator,River Rother,Canklow Regulator,53.402459,-1.34854,---,23.96,2026-04-08T11:30:00Z,671
L0302,Canklow Washlands,Ulley Brook,Canklow Washlands,53.40273,-1.347107,m,0.158,2026-04-08T11:15:00Z,670
4176,Cannock,Ridings Brook,,52.682553,-2.025244,mASD,0.22,2026-04-08T11:15:00Z,671
4663,Cannock Churchbridge Hall Lane,,,52.666095,-2.01728,mASD,0.042,2026-04-08T11:30:00Z,671
780001,Canonbie,River Esk,Canonbie,55.066848,-2.946363,m,0.535,2026-04-08T11:15:00Z,671
47175,Canworthy Water Bridge,River Ottery,Canworthy Water,50.698134,-4.516525,m,0.22,2026-04-08T04:15:00Z,643
E44566,Cardington,River Great Ouse,Bedford,52.126329,-0.429108,mAOD,1.281,2026-04-08T10:00:00Z,666
E14811,Carisbrook Mill,Lukely Brook,Newport,50.695451,-1.305261,mASD,0.193,2026-04-08T11:15:00Z,671
765600,Carlisle Raffles Avenue,Parham Beck,Carlisle,54.892374,-2.963486,m,0.038,2026-04-08T11:30:00Z,671
4208,Carlton,Ouse Dyke,Carlton,52.969773,-1.07353,mASD,0.304,2026-04-08T11:30:00Z,671
SE62CH1LSS,Carlton Hanger Lane,,,,,mAOD,-13.74,2026-04-08T06:00:00Z,650
SE62CHLLRD,Carlton Hanger Lane,,,,,mAOD,2.401,2026-04-08T06:00:00Z,650
4199,Carlton on Trent,River Trent,Carlton on Trent,53.16878,-0.80143,mAOD,2.982,2026-04-08T11:15:00Z,671
47121,Carnwood,River Plym,Bickleigh,50.431671,-4.083069,m,0.325,2026-04-08T04:00:00Z,642
9408SE,Carpenters Finchdean GWLS,,,,,mAOD,40.844,2026-04-08T05:00:00Z,162
4159TH,Carshalton Ponds,River Wandle,Carshalton,51.367034,-0.162812,mASD,0.164,2026-04-08T11:15:00Z,671
732003,Cartmel Wheelhouse Bridge,Eea River,Cartmel,54.201851,-2.953279,m,0.471,2026-04-08T11:30:00Z,671
700448,Castle Bridge Croston,River Yarrow,Croston,53.660749,-2.778025,m,0.555,2026-04-08T11:30:00Z,671
SU19_85,Castle Eaton STW OBH,,,,,mAOD,74.69,2026-04-08T10:00:00Z,167
4094,Castle Farm,River Blythe,Coleshill,52.496238,-1.688419,mASD,0.647,2026-04-08T11:15:00Z,671
751020,Castle Howe,Bassenthwaite Lake,Castle Howe,54.666243,-3.236916,---,1.262,2026-04-08T11:15:00Z,671
690554,Castle Irwell Inlet,,,53.505001,-2.275273,m,2.205,2026-04-08T11:30:00Z,671
E21034,Castle Mill,River Great Ouse,Bedford,52.145596,-0.405558,mASD,0.138,2026-04-08T11:15:00Z,670
L2907,Castleton,River Esk,Castleton,54.466168,-0.944968,---,0.134,2026-04-08T11:15:00Z,671
724629,Caton,River Lune,Caton,54.081344,-2.722026,m,0.598,2026-04-08T11:15:00Z,671
720535,Catterall,River Wyre,St Michael's On Wyre,53.866048,-2.811986,mASD,7.012,2026-04-08T04:30:00Z,644
720535_BASIN,Catterall,,,53.863797,-2.812703,m,7.629,2026-04-08T04:30:00Z,643
F2306,Catterick Bridge,River Swale,Catterick Bridge,54.388672,-1.653481,m,0.468,2026-04-08T11:15:00Z,671
L2363,Catterick Brough Park,Brough Beck,Catterick FAS Brough Park,54.374006,-1.650387,m,0.196,2026-04-08T11:30:00Z,671
L2373,Catterick Garrison,Sour Beck,Catterick Garrison,54.373262,-1.705009,---,0.097,2026-04-08T11:15:00Z,671
E1541,Chafford,River Medway,Fordcombe,51.144544,0.168468,mASD,0.25,2026-04-08T11:15:00Z,671
E84409,Chagford Drogo Iron Bridge,River Teign,,50.691685,-3.810926,m,1.26,2026-04-08T11:30:00Z,669
E12520,Chandler's Ford,Monks Brook,Chandler's Ford,50.983422,-1.382474,mASD,0.11,2026-04-08T11:15:00Z,671
SU47_134,Chapel Farm OBH,,,,,mAOD,119.42,2026-04-08T05:00:00Z,162
E4403,Chapel Hill,River Witham,Chapel Hill,53.070452,-0.196967,mASD,1.037,2026-04-08T11:15:00Z,671
SU47_28,Chapel Wood,Groundwater Level,Winterbourne,51.476777,-1.339898,mAOD,111.864,2026-04-08T08:00:19Z,172
2218,Charterhouse Bridge,River Sherbourne,,52.401988,-1.495801,mASD,0.19,2026-04-08T11:15:00Z,671
685120,Chase Way, Ellesmere Port,Rivacre Brook,Ellesmere Port,53.268266,-2.931165,m,0.183,2026-04-08T11:15:00Z,671
SJ79_91,Chat Moss,,,,,m,8.703,2026-04-08T06:00:00Z,163
710401,Chatburn Pendle Avenue,Heys Brook,Chatburn,53.891887,-2.350346,m,0.054,2026-04-08T11:30:00Z,671
4043,Chatsworth,River Derwent,Carlton Lees,53.211297,-1.610938,mASD,1.145,2026-04-08T11:15:00Z,671
SU89_19,Chawley Road OBH,,,,,mAOD,89.747,2026-04-08T06:00:00Z,163
4188,Cheadle LVL,,,52.995269,-1.986021,mASD,0.187,2026-04-08T11:15:00Z,671
SE94CBULCC,Cherry Burton,,,,,mAOD,20.261,2026-04-08T06:00:00Z,650
F2570,Cherry Farm,Hodge Beck,Fadmoor,54.303695,-1.000302,m,0.236,2026-04-08T11:15:00Z,671
2902TH,Chertsey Lock,River Thames,Chertsey,51.390617,-0.48637,mASD,0.28,2026-04-08T11:15:00Z,671
5308TH,Cheshunt, Rosedale Way,Rags Brook,Flamstead End,51.713361,-0.060582,mASD,0.808,2026-04-08T11:15:00Z,671
5322TH,Cheshunt, Trinity Lane,Theobalds Brook,Waltham Cross,51.691657,-0.027263,mASD,0.398,2026-04-08T11:15:00Z,671
5318TH,Cheshunt, Windmill Lane,Small River Lee,Cheshunt,51.703222,-0.022505,mASD,0.536,2026-04-08T11:15:00Z,671
SJ58_117,Chester Road BH,,,,,m,7.368,2026-04-08T07:00:00Z,164
SJ47_031,Chester Zoo Obs,,,,,m,22.897,2026-04-08T07:00:00Z,164
024009,Chester-Le-Street,River Wear,Chester-Le-Street,54.854785,-1.560716,---,0.405,2026-04-08T11:15:00Z,671
L02203,Chesterfield Ashgate,Holme Brook,,53.242734,-1.453673,m,0.03,2026-04-08T11:15:00Z,671
L0208,Chesterfield Avenue Washlands,River Rother,Chesterfield Avenue Washlands,53.21244,-1.420921,m,0.255,2026-04-08T11:30:00Z,671
L0245,Chesterfield Calow Lane,Calow Brook,Chesterfield Calow Lane,53.225038,-1.398178,m,0.161,2026-04-08T11:30:00Z,671
L0233,Chesterfield Park Road Bridge,River Hipper,Chesterfield,53.232965,-1.430996,m,-0.005,2026-04-08T11:15:00Z,671
L0207,Chesterfield St Augustines,River Rother,,53.225424,-1.425584,---,0.247,2026-04-08T11:15:00Z,671
4129,Cheswick Green,River Blythe,Cheswick Green,52.376154,-1.814434,mASD,0.276,2026-04-08T11:15:00Z,671
53183,Chew Magna Level,Winford Brook,Chew Magna,51.36697,-2.621881,m,0.236,2026-04-08T11:15:00Z,671
E14261,Chewton Glen,Walkford Brook,Highcliffe,50.745533,-1.683293,---,0.129,2026-04-08T10:00:00Z,665
2277,Cheyney Close,Sud Brook,Gloucester,51.848593,-2.220433,mASD,0.121,2026-04-08T11:15:00Z,671
E11100,Chichester Tozer Way,River Lavant,Chichester,50.837894,-0.768879,mAOD,13.292,2026-04-08T11:00:00Z,670
1651SO,Chick Hill,,,,,mAOD,2.281,2026-04-08T11:30:00Z,671
E13823,Chilbolton Side,River Test,Chilbolton,51.152223,-1.450813,mAOD,0.69,2026-04-08T11:00:00Z,670
26105,Childs Ercall ABH,,,,,mBDAT,31.62,2026-04-08T11:00:00Z,168
2528,Childswickham,Badsey Brook,,52.044806,-1.886436,mASD,0.234,2026-04-08T11:30:00Z,671
050301012,Chillerton GS,,,50.657274,-1.301934,mASD,0.291,2026-04-08T07:00:00Z,653
4386TH,Chinbrook Park,River Quaggy,Grove Park,51.431438,0.027081,mASD,0.024,2026-04-08T11:00:00Z,670
2406TH,Chineham,Petty's Brook,Chineham,51.296962,-1.056426,mASD,0.246,2026-04-08T11:15:00Z,671
5376TH,Chingford,Ching Brook,Chingford,51.619051,0.008836,mASD,0.147,2026-04-08T11:15:00Z,671
5427TH,Chipping Ongar,Cripsey Brook,Chipping Ongar,51.709101,0.239586,m3/s,0.148,2026-04-08T11:15:00Z,672
TQ25_86,Chipstead,Groundwater Level,,51.282737,-0.196979,mAOD,98.221,2026-04-08T11:00:00Z,168
43171,Chitterne Down,Groundwater Level,,51.189817,-1.971754,mAOD,96.695,2026-04-08T09:00:00Z,662
700405,Chorley Haworth Road,Black Brook,Chorley,53.65471,-2.612083,m,0.193,2026-04-08T11:30:00Z,671
SJ45_049,Chowley Oak,,,,,m,9.483,2026-04-08T07:00:00Z,164
43106,Christchurch,Christchurch Coast,Christchurch,50.730338,-1.773396,mAOD,0.147,2026-04-08T11:00:00Z,670
744131,Church View,Skirting Beck,Egremont,54.48205,-3.530118,m,0.323,2026-04-08T11:30:00Z,671
9623SE,Churchill Road RL,,,51.175242,-0.113993,mASD,0.192,2026-04-08T11:30:00Z,671
2117,Churchover,River Swift,,52.421794,-1.255694,mASD,0.149,2026-04-08T11:30:00Z,671
SU09_143,Circencester Spine Road,,,,,mAOD,88.595,2026-04-08T08:00:00Z,165
SU09_139,Cirencester Ashton Keynes WWTW,,,,,mAOD,88.06,2026-04-08T07:00:00Z,164
SU09_140,Cirencester Ewen Mill Farm,,,,,mAOD,94.673,2026-04-08T09:00:00Z,166
E24861,Clacton Pier,Essex Coast,Clacton-On-Sea,51.784824,1.156997,mAOD,-0.664,2026-04-08T11:15:00Z,670
43168,Clarendon,Groundwater Level,,51.079353,-1.728286,mAOD,69.185,2026-04-08T11:15:00Z,671
2649,Clay Coton,Clay Coton Brook,Clay Coton,52.387107,-1.128914,mASD,0.299,2026-04-08T11:15:00Z,671
E2901,Claypole,River Witham,Claypole,53.022669,-0.746145,mASD,0.223,2026-04-08T11:15:00Z,674
253222001,Clayton,,,50.916942,-0.146678,mASD,0.099,2026-04-08T05:45:00Z,648
2552,Cleobury Mortimer,Pudding Brook,,52.377781,-2.481344,mASD,0.027,2026-04-08T11:30:00Z,671
NY52_2H,Cliburn BH,,,,,m,16.171,2026-04-08T07:00:00Z,164
NY52_25,Cliburn Town Br 1,,,,,m,1.972,2026-04-08T05:00:00Z,162
NY52_26,Cliburn Town Br 2,,,,,m,1.391,2026-04-08T05:00:00Z,162
4175,Clifton Hall,River Mease,,52.698639,-1.610921,mASD,0.235,2026-04-08T11:15:00Z,671
L2408,Clifton Ings Outfall,River Ouse,Clifton Ings Outfall,53.969015,-1.106396,---,5.452,2026-04-08T11:15:00Z,671
SD70_252,Clifton Junction,,,,,m,17.596,2026-04-08T07:00:00Z,164
2221,Clomoney Way,Horsbere Brook,Gloucester,51.881479,-2.206851,mASD,0.371,2026-04-08T11:15:00Z,671
E21854,Clopton,River Lark,,52.136911,1.234937,mAOD,0.257,2026-04-08T11:15:00Z,670
2056,Clungunford,River Clun,,52.401891,-2.892925,mASD,0.317,2026-04-08T11:30:00Z,671
52206,Clyse Hole,River Brue,Glastonbury,51.136761,-2.724464,m,0.262,2026-04-08T11:15:00Z,671
E84443,Clyst St Mary Millstream Footbridge,River Clyst Tributary,,50.712527,-3.455802,m,2.15,2026-04-08T11:30:00Z,671
E84323,Clyst St Mary Millstream Outfall,River Clyst Tributary,,50.710932,-3.456787,m,1.521,2026-04-08T11:30:00Z,671
SD31_43,Coast Rd East,,,,,m,2.102,2026-04-08T10:00:00Z,167
E21058,Cockfield,River Brett,Cockfield,52.135453,0.794489,m,0.071,2026-04-08T11:15:00Z,671
2826SO,Cocking Hoefield Lane GWL,,,,,mAOD,68.9,2026-04-08T05:49:45Z,175
1675TH,Cold Harbour,Hinksey Stream,South Hinksey,51.730973,-1.251352,mASD,0.861,2026-04-08T11:15:00Z,671
021030,Coldgate Mill,Wooler Water,North Middleton,55.517539,-2.005254,m,0.049,2026-04-08T11:15:00Z,671
43207,Colesbrook,Shreen Water,Milton On Stour,51.049578,-2.276018,m,0.185,2026-04-08T11:15:00Z,671
7227,Coley Farm OBH,,,,,mBDAT,0.404,2026-04-08T09:00:00Z,166
2199,Coley Mill LVL,,,52.770605,-2.327738,mASD,0.199,2026-04-08T11:30:00Z,671
SP00_143,College Farm OBH,,,,,mAOD,103.148,2026-04-08T06:00:00Z,163
5518TH,Collier Row,River Rom,Romford,51.597866,0.154258,mASD,0.401,2026-04-08T11:30:00Z,671
690611,Collyhurst Weir,River Irk,Manchester,53.493682,-2.229815,m,0.128,2026-04-08T11:15:00Z,671
E23073,Colney,River Yare,,52.627923,1.223083,m,0.27,2026-04-08T10:00:00Z,666
2819TH,Colney Street,River Ver,Colney Street,51.704664,-0.336052,mASD,0.303,2026-04-08T11:15:00Z,671
E1652,Colsterworth,River Witham,Woolsthorpe-By-Colsterworth,52.810944,-0.623165,m,0.152,2026-04-08T11:15:00Z,670
4009,Colwick,River Trent,Holme Pierrepont,52.952707,-1.07772,mASD,1.258,2026-04-08T11:15:00Z,671
E85103,Colyton Station Road,River Coly,,50.742788,-3.065928,m,0.644,2026-04-08T11:30:00Z,671
53125,Compton Dando,River Chew,Compton Dando,51.380436,-2.506812,m,0.676,2026-04-08T11:15:00Z,671
SU57_154,Compton OBH,,,,,mAOD,95.079,2026-04-08T04:00:20Z,168
E13404,Conagar Bridge,River Test,Nursling,50.941207,-1.495758,mASD,0.532,2026-04-08T11:15:00Z,670
50126,Coney Gut,Coney Gut,Barnstaple,51.073179,-4.041276,mASD,0.507,2026-04-08T11:00:00Z,670
E7532,Congresbury,Congresbury Yeo,Congresbury,51.371207,-2.808523,m,5.507,2026-04-08T11:30:00Z,671
L0711,Conisbrough,,,53.480755,-1.227185,m,0.082,2026-04-08T11:15:00Z,670
737526,Coniston Church Bridge,Church Beck,Coniston,54.368852,-3.075834,m,0.703,2026-04-08T11:30:00Z,671
4180TH,Connollys Mill GS,,,51.419703,-0.181196,m3/s,2.245,2026-04-08T11:30:00Z,671
L1505,Cononley,River Aire,Cononley,53.918229,-2.006046,m,-0.152,2026-04-08T11:15:00Z,671
46110,Coombe Cellars,River Teign,Combeinteignhead,50.541046,-3.550843,m,0.745,2026-04-08T11:15:00Z,671
E3501,Cooper Street PS,,,,,mAOD,0.757,2026-04-08T11:30:00Z,671
L1203,Copley Bridge,River Calder,Copley,53.697959,-1.873488,m,0.393,2026-04-08T11:15:00Z,671
531186,Corsham,River Avon,Corsham,51.427335,-2.189861,m,0.033,2026-04-08T11:30:00Z,671
2046,Cosford River,River Worfe,,52.639325,-2.326002,---,0.15,2026-04-08T11:30:00Z,671
E19862,Costessey Mill,River Wensum,,52.668623,1.217973,m3/s,0.3,2026-04-08T11:24:29Z,687
L3238,Cottingham Hallgate,Broadlane Beck,Cottingham Hallgate,53.781894,-0.420669,m,0.085,2026-04-08T11:30:00Z,671
L3237,Cottingham Station Road,,,53.781634,-0.407793,m,0.124,2026-04-08T11:30:00Z,671
2890,Cotton Farm ABH,,,,,mBDAT,-3.05,2026-04-08T11:00:00Z,168
NY71_23,Coupland,,,,,m,2.037,2026-04-08T07:00:00Z,164
2423TH,Cove Hazel Avenue,Cove Brook,,51.291321,-0.774462,mAOD,0.805,2026-04-08T10:00:00Z,666
4177,Coven,River Penk,Coven,52.662979,-2.143695,mASD,0.653,2026-04-08T11:15:00Z,671
SU48_74,Cow Down OBH,,,,,mAOD,116.673,2026-04-08T10:00:00Z,167
F3507,Cow Green,,,54.65393,-2.291344,m,0.377,2026-04-08T10:00:00Z,666
E78420,Cowbeech,River Cuckmere,Cowbeech,50.912658,0.290758,mAOD,0.082,2026-04-08T11:30:00Z,671
E15040,Cowes,Tide,East Cowes,50.763267,-1.296672,mAOD,-0.435,2026-04-08T11:15:00Z,671
SU75_29,Cowfold OBH,,,,,mAOD,59.327,2026-04-08T10:00:00Z,167
E5080,Crabble Mill,River Dour,Dover,51.140192,1.287219,mAOD,0.271,2026-04-08T11:15:00Z,671
E5082,Crabble Mill GS,,,51.140192,1.287219,m3/s,0.919,2026-04-08T11:30:00Z,671
023016,Crag Hall,Ouse Burn,Gosforth,55.001861,-1.604447,---,0.107,2026-04-08T11:15:00Z,671
3697TH,Crane Tidal Gates FWS,,,51.465414,-0.322425,mASD,1.368,2026-04-08T11:15:00Z,671
4127,Cranfleet Lock LVL,,,52.879472,-1.254839,mASD,0.879,2026-04-08T11:15:00Z,671
2547,Craven Arms,Field Drain,,52.439087,-2.837158,mASD,0.271,2026-04-08T11:30:00Z,671
3219TH,Crawley FWS,,,51.102235,-0.173972,mASD,0.26,2026-04-08T11:15:00Z,671
3208SE,Crawters Brook RL,,,51.308012,-0.160866,mAOD,56.382,2026-04-08T11:30:00Z,671
4863,Cresswell,River Blithe,,52.948907,-2.036414,mASD,0.174,2026-04-08T11:15:00Z,671
0190TH,Cricklade,River Thames,Cricklade,51.646694,-1.865536,mASD,0.309,2026-04-08T11:15:00Z,671
2537,Criftin Ford bridge,River Teme,,52.343165,-2.852812,mASD,1.128,2026-04-08T11:00:00Z,669
692830,Cringle Brook Debris Screen,Cringle Brook,Fallowfield,53.438429,-2.215833,m,0.028,2026-04-08T11:15:00Z,671
2450TH,Crondall Bridge,River Hart,Crondall,51.237527,-0.858803,mASD,0.238,2026-04-08T08:00:00Z,657
024030,Crook West Bridge Street,Crook Beck,Crook West Bridge Street,54.715017,-1.74235,m,0.017,2026-04-08T11:30:00Z,671
2455TH,Crookham Village,River Hart,Crookham Village,51.262934,-0.867562,mASD,0.548,2026-04-08T11:15:00Z,671
1416TH,Cropredy Bridge,River Cherwell,Cropredy,52.114915,-1.315184,mASD,0.97,2026-04-08T11:15:00Z,671
700016,Crossens Pumping Station,The Sluice,,53.678664,-2.944025,m,1.348,2026-04-08T11:30:00Z,671
SJ28_26,Crosshills,,,,,m,38.173,2026-04-08T07:00:00Z,164
E11320,Crosslands Drive,River Lavant,Havant,50.860206,-0.976619,mAOD,0.11,2026-04-08T11:30:00Z,671
1722,Crossley Hill OBH,,,,,mBDAT,25.936,2026-04-08T07:00:00Z,164
700408,Croston,River Yarrow,Croston,53.655882,-2.760429,m,0.318,2026-04-08T11:15:00Z,671
700406,Croston Dam,River Yarrow,Croston,53.657244,-2.72491,m,0.56,2026-04-08T11:30:00Z,671
690315,Crow Tree Farm Brook,,,53.563681,-2.33354,m,0.016,2026-04-08T11:30:00Z,671
SE7050,Crowhurst,Combe Haven,Crowhurst,50.878052,0.500069,mAOD,4.958,2026-04-08T11:30:00Z,671
E6619,Crowhurst GS,,,51.01189,0.398508,m3/s,,,0
4171,Croxall LVL,,,52.731408,-1.705184,mASD,0.531,2026-04-08T11:15:00Z,671
2849TH,Croxley Green,River Gade,Croxley Green,51.645553,-0.436992,mASD,0.151,2026-04-08T11:15:00Z,671
1023,Croxton,,,,,mBDAT,51.91,2026-04-08T09:15:00Z,663
2170a,Crudgington FLOW,,,52.754303,-2.53401,m3/s,0.425,2026-04-08T11:30:00Z,671
751511,Crummock Water,,,54.575287,-3.314807,m,1.67,2026-04-08T09:00:00Z,662
4044,Cuckney LVL,,,53.2366,-1.145421,mASD,0.262,2026-04-08T11:15:00Z,671
45192,Cullompton Langlands,Crow Green Stream,,50.85721,-3.402036,m,0.106,2026-04-08T11:15:00Z,670
E84089,Cullompton Swallow Way,Cole Brook,,50.849027,-3.398268,m,0.338,2026-04-08T06:00:00Z,649
765013,Cummersdale,River Caldew,Cummersdale,54.865626,-2.944447,m,0.451,2026-04-08T11:15:00Z,671
52118,Currymoor Pumping Station,River Tone,Athelney,51.054966,-2.936065,mAOD,4.679,2026-04-08T11:15:00Z,670
9626SE,Curtis Road Bridge RL,,,51.234471,-0.340951,mASD,0.2,2026-04-08T07:00:00Z,1958
E2065,DALLINGTON FSR NORTHAMPTON WITS,,,52.254904,-0.929057,mAOD,73.578,2026-04-08T11:00:00Z,670
E1366,DENTON FSR WITS,,,52.211862,-0.776883,mAOD,80.92,2026-04-08T11:15:00Z,670
E7421,DENTON PS,,,50.788104,0.060701,mAOD,0.39,2026-04-08T11:15:00Z,671
E21739,DERNFORD GS,,,52.134797,0.142107,m3/s,0.84,2026-04-08T11:15:00Z,670
531182,DIDMARTON BOREHOLES,,,,,m,17.566,2026-04-08T11:15:00Z,671
E78441,DITCHAMPTON RESERVOIR DNP3,,,,,mAOD,54.095,2026-04-08T10:45:00Z,668
2202SO,DITCHLING ROAD GWL,,,,,mAOD,60.722,2026-04-08T11:18:16Z,813
E3010,DODFORD GS,,,52.240957,-1.082408,m3/s,0.508,2026-04-08T11:30:00Z,671
E1959,DOG IN A DOUBLET SLUICE AUTOMATION,,,52.576813,-0.124546,m,2.868,2026-04-08T11:15:03Z,1325
E1960,DOG IN A DOUBLET SLUICE AUTOMATION,,,52.576813,-0.124546,mAOD,1.144,2026-04-08T11:15:00Z,670
E65301,DOG IN A DOUBLET SLUICE AUTOMATION,,,52.576813,-0.124546,mAOD,2.864,2026-04-08T11:15:00Z,671
E65302,DOG IN A DOUBLET SLUICE AUTOMATION,,,52.576813,-0.124546,mAOD,1.144,2026-04-08T11:15:00Z,671
E12793,DROVE LANE COMBINED FLOW,,,51.09029,-1.181065,m3/s,2.72,2026-04-08T11:30:00Z,671
E12802,DROVE LANE MAIN GS,,,51.09029,-1.181065,m3/s,1.95,2026-04-08T11:15:00Z,671
E12792,DROVE LANE SIDE GS,,,51.09028,-1.179637,m3/s,0.77,2026-04-08T11:15:00Z,671
45193,DUCKALLER WEIR C GS,,,50.612687,-3.471982,m,0.127,2026-04-08T11:15:00Z,670
E13546,DUNBRIDGE GS,,,51.03473,-1.547141,m3/s,1.274,2026-04-08T11:15:00Z,671
E2886,DUNSTON BECK GS,,,53.147149,-0.417125,m,0.166,2026-04-08T11:00:00Z,674
46109,Dakyn Road Inlet,Bushby Brook,Thurnby,52.636193,-1.055692,---,0.561,2026-04-08T11:30:00Z,671
5044,Dakyn Road LVL,,,52.637658,-1.059015,mASD,0.047,2026-04-08T11:30:00Z,671
SJ87_32,Dale Brow,,,,,m,39.275,2026-04-08T06:00:00Z,163
738348,Dalton Cricket Club,The Yarl,Dalton,54.15629,-3.173265,m,0.233,2026-04-08T11:30:00Z,671
SE94DEWLCC,Dalton Estates,,,,,mAOD,21.477,2026-04-08T06:00:00Z,650
L08015,Darfield Bridge,River Dearne,Darfield,53.536358,-1.366253,---,0.297,2026-04-08T11:15:00Z,671
4083,Darlaston,River Trent,Meaford,52.916247,-2.171867,m3/s,0.781,2026-04-08T11:15:00Z,671
L35024,Darlington Faverdale,West Beck,Darlington Faverdale,54.541649,-1.577191,m,0.125,2026-04-08T11:30:00Z,671
E1920,Darman Bridge,,,51.19795,0.414345,mAOD,12.129,2026-04-08T11:15:00Z,671
DCB_DR,Dartford Creek Barrier DR,,,51.478413,0.2166,mAOD,-1.637,2026-04-08T11:15:00Z,671
DCB_UR,Dartford Creek Barrier UR,,,51.478413,0.2166,mAOD,-1.605,2026-04-08T11:15:00Z,671
713204,Darwen Clough Street Overflow,River Darwen,Darwen,53.683788,-2.454585,m,0.51,2026-04-08T11:30:00Z,671
53140,Dauntsey,Dauntsey Brook,Dauntsey,51.536448,-2.004702,m,0.085,2026-04-08T11:15:00Z,670
5321TH,David Stoker Radial Gates,,,51.697274,-0.013228,mAOD,0.044,2026-04-08T11:15:00Z,671
685513,Davis Road,River Birket,Moreton,53.411889,-3.088778,m,0.396,2026-04-08T11:15:00Z,671
45171,Dawlish,Dawlish Water,Dawlish,50.580497,-3.472207,m,0.221,2026-04-08T11:00:00Z,670
E84129,Dawlish Warren Secmaton Lane,Shutterton Brook,,50.597398,-3.462702,m,0.467,2026-04-08T11:00:00Z,669
49129,De Lank,De Lank River,St Breward,50.558795,-4.637796,m,0.179,2026-04-08T11:00:00Z,670
4170,Deepmore Farm,Saredon Brook,,52.671341,-2.108289,mASD,0.32,2026-04-08T11:15:00Z,671
2606,Deerhurst,River Severn,Deerhurst,51.969234,-2.193572,m3/s,68.5,2026-04-08T11:15:00Z,671
2534,Deerhurst Flood Plain Level,River Severn,Flood plain,51.96853,-2.189668,mASD,2.782,2026-04-08T11:30:00Z,671
44240,Delcombe Wood,Groundwater Level,Delcombe Wood,50.838682,-2.286813,mAOD,130.248,2026-04-08T11:15:00Z,671
L0812,Denby Dale Norman Road,River Dearne,Denby Dale Norman Road,53.571667,-1.657895,m,0.253,2026-04-08T11:30:00Z,671
2870TH,Denham Colne,River Colne,Denham,51.56631,-0.483905,mASD,0.201,2026-04-08T11:15:00Z,671
2879_w1TH,Denham Lodge,River Misbourne,Denham,51.567599,-0.49112,mASD,0.121,2026-04-08T11:15:00Z,671
2879_w2TH,Denham Lodge,,,51.569085,-0.489873,mASD,0.06,2026-04-08T11:15:00Z,671
E11570,Denmead,River Wallington,Denmead,50.892259,-1.059307,mAOD,33.537,2026-04-08T11:15:00Z,671
765045,Denton Holme,River Caldew,Carlisle,54.885739,-2.937513,m,0.273,2026-04-08T11:15:00Z,671
4681,Derby Bridge Street,Markeaton Brook,Derby,52.925946,-1.487492,mASD,0.835,2026-04-08T11:30:00Z,671
023060,Derwent Reservoir,,,54.854558,-1.964666,m,-0.959,2026-04-08T11:15:00Z,671
4090,Derwent Reservoir LVL,,,53.40522,-1.74026,mBDAT,-0.029,2026-04-07T10:30:00Z,465
E16586,Dewlish Woodsdown Cross,Piddle Brook,Dewlish,50.800836,-2.320113,m,0.08,2026-04-08T10:45:00Z,668
44237,Dickley Down,Groundwater Level,,50.800191,-2.502719,mAOD,158.353,2026-04-08T09:00:00Z,662
SU48_68A,Didcot Knollend Down A,,,,,mAOD,113.84,2026-04-08T05:00:00Z,162
SU48_68B,Didcot Knollend Down B,,,,,mAOD,132.709,2026-04-08T05:00:00Z,162
SU58_89,Didcot Lower Chance Farm,,,,,mAOD,103.212,2026-04-08T11:00:00Z,168
692705,Didsbury,,,53.402528,-2.23534,m,0.264,2026-04-08T11:30:00Z,671
692707,Didsbury Basin Stenner Lane,,,53.410225,-2.233923,m,2.275,2026-04-08T11:30:00Z,671
692706,Didsbury River,River Mersey,Didsbury,53.40126,-2.235618,m,2.966,2026-04-08T11:15:00Z,671
2085,Diglis,River Severn,Worcester,52.179799,-2.225461,mASD,0.663,2026-04-08T11:15:00Z,671
E24814,Diss,River Waveney,Diss,52.371419,1.099743,mASD,0.276,2026-04-08T11:15:00Z,671
021034,Doddington Bridge,River Till,Doddington Bridge,55.570489,-2.003375,m,0.454,2026-04-08T11:30:00Z,671
E2285,Dodford,River Nene,Dodford,52.240918,-1.083171,mASD,0.133,2026-04-08T11:15:00Z,670
SJ36_117,Dodleston,,,,,m,-9.29,2026-04-08T07:00:00Z,164
44236,Doles Ash,Groundwater Level,,50.806765,-2.400522,mAOD,119.03,2026-04-08T09:15:00Z,663
50117,Dolton,River Torridge,Dolton,50.882269,-4.065162,m,0.219,2026-04-08T11:15:00Z,671
L0908,Doncaster Strawberry Island Temp,Dun Navigation Canal,Doncaster Strawberry Island,53.536068,-1.127394,mAOD,7.517,2026-04-08T11:15:00Z,670
E1662,Donington Bridge,South Forty Foot Drain,Bridge End,52.90501,-0.255888,mASD,0.574,2026-04-08T11:00:00Z,675
SP10_54,Donkeywell OBH Level,,,,,mAOD,102.96,2026-04-08T05:00:00Z,162
52115,Donyatt,River Isle,Donyatt,50.921842,-2.940546,m,0.28,2026-04-08T11:15:00Z,671
45212,Dotton,River Otter,Colaton Raleigh,50.688326,-3.294258,m,0.297,2026-04-08T11:00:00Z,670
024016,Dovecote Hill,River Gaunless,Bishop Auckland,54.646651,-1.672987,m,0.525,2026-04-08T11:15:00Z,671
E5092,Dover USGS,,,51.126858,1.315047,m3/s,1.113,2026-04-08T11:30:00Z,671
694748,Dovers Bridge,Dovers Brook,Sefton,53.507328,-2.962574,m,0.598,2026-04-08T11:15:00Z,671
SU19_70,Down Ampney OBH,,,,,mAOD,83.592,2026-04-08T10:00:00Z,167
43162,Downton Iron Bridge,River Avon,Downton,50.994106,-1.748006,m,0.176,2026-04-08T04:15:00Z,645
SU17_110,Draycot Foliat,Groundwater Level,Ogbourne,51.504193,-1.738794,mAOD,155.106,2026-04-08T08:00:00Z,165
F3193,Driffield,Driffield Trout Stream,Driffield,53.990772,-0.447889,m,0.368,2026-04-08T11:15:00Z,670
L0218,Dronfield Dam,River Drone,Dronfield Dam,53.311051,-1.474084,---,0.519,2026-04-08T11:30:00Z,671
E12801,Drove Lane,River Alre,New Alresford,51.090021,-1.181212,mASD,0.488,2026-04-08T11:15:00Z,671
E12791,Drove Lane 1.5,River Alre,New Alresford,51.089282,-1.180897,mASD,0.379,2026-04-08T11:15:00Z,671
E9890,Drungewick,River Lox,Drungewick,51.067869,-0.488686,mAOD,0.113,2026-04-08T11:15:00Z,671
740102,Duddon Hall,River Duddon,Beckfoot,54.295374,-3.237418,m,0.313,2026-04-08T11:15:00Z,671
4055,Duffield,River Ecclesbourne,Windley,52.998306,-1.525391,mASD,0.22,2026-04-08T11:15:00Z,671
E71943,Dulverton Town Marsh,Marsh Water,,51.041677,-3.547634,m,0.655,2026-04-08T11:30:00Z,671
E9094,Dunball,Kings Sedgemoor Drain,Bridgwater,51.161484,-2.988087,m,2.217,2026-04-08T11:15:00Z,665
52163,Dunball Tidal,River Parrett,Dunball,51.162253,-2.989562,m,2.853,2026-04-08T11:15:00Z,665
E13540,Dunbridge,River Dun,Dunbridge,51.034114,-1.548274,mAOD,23.115,2026-04-08T11:15:00Z,671
6854,Dunham Bridge OBH,,,,,mBDAT,1.673,2026-04-08T09:15:00Z,663
46126,Dunnabridge,West Dart River,Hexworthy,50.551765,-3.916854,m,0.336,2026-04-08T04:00:00Z,642
L32011,Dunswell Ennerdale Bridge,River Hull,Dunswell Ennerdale Bridge,53.793786,-0.359038,m,2.467,2026-04-08T11:15:00Z,670
9498SE,Durley Mill Eel Pass RL,,,50.934579,-1.250915,mASD,-0.047,2026-04-08T11:00:00Z,669
E12460,Durngate,River Itchen,Winchester,51.064434,-1.307161,mAOD,37.034,2026-04-08T11:15:00Z,671
764115,Durranhill PS,,,54.896411,-2.902412,m,0.846,2026-04-08T11:15:00Z,671
764117,Durranhill Pumping Station,Durranhill Beck,Carlisle,54.896411,-2.902412,m,0.809,2026-04-08T11:30:00Z,671
698106,Dyers lane,Sandy Brook,Ormskirk,53.563325,-2.888611,---,0.046,2026-04-08T11:30:00Z,671
E19039,EAGLE LANE DULLINGHAM BOREHOLE,,,,,mAOD,-0.8,2026-04-08T11:15:00Z,670
E22745,EARLS COLNE FGS,,,51.935777,0.696989,m3/s,0.357,2026-04-08T10:00:00Z,666
E551,EAST FARLEIGH GS,,,51.256435,0.488613,mAOD,4.108,2026-04-08T11:15:00Z,671
E552,EAST FARLEIGH GS,,,51.256435,0.488613,m3/s,16.587,2026-04-08T11:30:00Z,671
E1105,EAST HALTON SKITTER SLUICE,,,53.689771,-0.268234,mAOD,1.047,2026-04-08T11:30:00Z,670
E24077,EAST MILL SLUICE COLCHESTER WITS,,,51.891342,0.915231,mAOD,3.979,2026-04-08T11:15:00Z,678
E24093,EAST MILL SLUICE COLCHESTER WITS,,,51.891342,0.915231,mAOD,0.96,2026-04-08T11:15:00Z,670
E11340,EASTERN ROAD RL,,,50.855193,-0.979187,mAOD,9.16,2026-04-08T11:00:00Z,670
E11341,EASTERN ROAD RL,,,,,mAOD,9.263,2026-04-08T11:30:00Z,671
E12381,EASTON USGS,,,51.089986,-1.271026,mAOD,41.246,2026-04-08T11:15:00Z,671
E12382,EASTON USGS,,,51.089986,-1.271026,m3/s,6.708,2026-04-08T11:15:00Z,671
531161,EASTVILLE,,,51.470324,-2.566101,mAOD,7.626,2026-04-08T11:15:00Z,671
531162,EASTVILLE,,,51.470324,-2.566101,mAOD,7.058,2026-04-08T11:15:00Z,671
E22918,EASTWOOD SOUTHEND GS,,,51.567418,0.680897,m,0.05,2026-04-08T10:02:36Z,695
E22173,ELLINGHAM MILL SLUICE,,,52.471099,1.479204,mAOD,2.095,2026-04-08T11:15:00Z,674
E22211,ELLINGHAM MILL SLUICE,,,52.471099,1.479204,m3/s,1.147,2026-04-08T11:15:00Z,670
E26181,ELLINGTON BROOK GS WITS,,,52.365481,-0.421447,mAOD,33.571,2026-04-08T11:15:00Z,670
E42804,ELTON SLUICE,,,52.532181,-0.403386,m,14.025,2026-04-08T11:15:00Z,670
E25501,EMSWORTH MILL POND SLUICES,,,50.842274,-0.939259,mAOD,1.859,2026-04-08T11:30:00Z,671
SX65F051,ERMINGTON,,,50.363074,-3.911208,m3/s,0.872,2026-04-08T11:00:00Z,669
E6652,ETCHINGHAM RL,,,51.010937,0.444508,mAOD,14.16,2026-04-08T11:15:00Z,671
E21103,EUSTON RECTORY GS,,,52.376585,0.783672,mASD,0.097,2026-04-08T11:30:00Z,670
SU69_119,EWELME GRUNDON No.2,,,,,mAOD,86.398,2026-04-08T05:00:00Z,162
E84283,EXETER COUNTESS WEAR WARING BOWEN COURT,,,50.701413,-3.50311,m,0.892,2026-04-08T11:00:00Z,669
E80883,EXETER OLD PINN LANE,,,50.735979,-3.468887,m,0.015,2026-04-08T11:30:00Z,671
E80863,EXETER PINHOE TRADING ESTATE,,,50.736865,-3.478452,m,0.035,2026-04-08T11:30:00Z,671
E1523,EYE BROOK RESERVOIR CALDECOTT WITS,,,52.539736,-0.743831,mASD,68.335,2026-04-08T11:15:00Z,670
E23350,EYE RRB RG,,,,,m,-12.5,2026-04-08T10:02:37Z,695
761659,Eamont Bridge Farm,River Eamont,Eamont Bridge,54.651055,-2.743236,m,0.573,2026-04-08T11:15:00Z,671
E21747,Earith,River Great Ouse,Earith,52.354128,0.03732,mASD,1.759,2026-04-08T10:45:00Z,669
44122,East Bridge Bridport,River Asker,Bridport,50.731934,-2.752192,m,0.207,2026-04-08T11:15:00Z,671
NY53_9,East Brownrigg,,,,,m,52.688,2026-04-08T07:00:00Z,164
45213,East Budleigh Brookfield Road,Budleigh Brook,East Budleigh,50.652217,-3.320001,mASD,0.691,2026-04-08T11:00:00Z,670
45234,East Budleigh Hayes Lane,Budleigh Brook,East Budleigh,50.656145,-3.324921,m,0.577,2026-04-08T11:00:00Z,670
NY34_6,East Curthwaite,,,,,m,8.464,2026-04-08T07:00:00Z,164
2825SO,East Dean Butchers Lane GWL,,,,,mAOD,75.708,2026-04-08T11:03:36Z,331
L3241,East Hull Hedon Road,Holderness Drain,East Hull Hedon Road,53.747798,-0.286429,---,-1.308,2026-04-08T11:15:00Z,670
E11723,East Meon,River Meon,East Meon,50.99496,-1.033579,mAOD,0.159,2026-04-08T11:30:00Z,671
43123,East Mills Flume,River Avon,Fordingbridge,50.928396,-1.777288,m,1.088,2026-04-08T11:15:00Z,671
SE67ENOLC0,East Ness Hall Obs,,,,,mAOD,24.861,2026-04-08T10:45:00Z,669
DIFF_EastUR_EastDR,East UR and East DR,,,51.494354,0.026414,m,0.216,2026-04-08T11:00:00Z,670
371301002,Eastbourne Harbour,Tide,Eastbourne Harbour,50.790954,0.327923,mAOD,-0.326,2026-04-08T11:30:00Z,671
2254TH,Eastbury Flood Control Structure,River Lambourn,Eastbury,51.497183,-1.511619,mASD,1.365,2026-04-08T11:00:00Z,670
764120,Eastern Way,,,54.893717,-2.899655,m,0.502,2026-04-08T11:30:00Z,671
3101SE,Easton,River Itchen,Easton,51.088829,-1.2729,mASD,0.646,2026-04-08T11:15:00Z,671
4688,Eastwood,Beauvale Brook,Eastwood,53.022713,-1.307535,mASD,0.302,2026-04-08T10:15:00Z,666
SD54_21,Eastwood Drive,,,,,m,22.976,2026-04-08T05:00:00Z,162
E24317,Eaton Socon,River Great Ouse,Eaton Socon,52.21309,-0.281653,mASD,0.063,2026-04-08T10:00:00Z,666
2027,Ebley Mill,River Frome (Severn),Stroud,51.740019,-2.24687,mASD,0.352,2026-04-08T11:15:00Z,671
700421,Eccleston Heskin Bridge,Syd Brook,Eccleston,53.638794,-2.715518,m,0.572,2026-04-08T11:30:00Z,671
L0351,Eckington Rotherham Road,The Moss,Eckington Rotherham Road,53.313391,-1.348936,m,0.264,2026-04-08T11:30:00Z,671
2915,Eckington Sluice,River Avon,Eckington,52.062065,-2.124922,mASD,2.092,2026-04-08T11:15:00Z,671
023002,Eddys Bridge,River Derwent,Muddleswick,54.851887,-1.937552,m,0.283,2026-04-08T11:15:00Z,671
E1110,Edenbridge,Eden Tributary  Medway,Edenbridge,51.194078,0.065165,mASD,0.992,2026-04-08T11:15:00Z,671
SJ45_160,Edge,,,,,m,16.519,2026-04-08T07:00:00Z,164
3826TH,Edgware Hospital,Silk Stream,Edgware,51.607093,-0.271414,mASD,0.644,2026-04-08T11:15:00Z,671
3802TH,Edgwarebury FSA FD,,,51.624739,-0.285754,mAOD,63.707,2026-04-08T11:15:00Z,673
5357TH,Edmonton Green,Salmon Brook,Edmonton,51.626104,-0.060318,mASD,0.075,2026-04-08T11:15:00Z,671
735226,Eel House Bridge,Cunsey Beck,Satterthwaite,54.338025,-2.970931,m,0.649,2026-04-08T11:15:00Z,671
4148,Egginton,Egginton Brook,Egginton,52.854343,-1.601779,mASD,0.24,2026-04-08T11:30:00Z,671
2275,Egypt Mill,Nailsworth Stream,Nailsworth,51.697286,-2.218553,mASD,0.459,2026-04-08T11:15:00Z,671
E70404,ElementNotMappedToAnOutstation,,,50.595093,-3.61596,m3/s,1.806,2026-04-08T11:00:00Z,669
4805,Elford,River Tame,Elford,52.690701,-1.722856,mASD,1.196,2026-04-08T11:30:00Z,671
E14110,Eling,Bartley Water,Totton,50.910816,-1.482204,mAOD,-0.047,2026-04-08T11:00:00Z,670
E14111,Eling,Tide,Totton,50.911049,-1.482017,mAOD,-0.45,2026-04-08T11:00:00Z,670
694122,Ellamsbridge Road, St Helens,Sutton Mill Brook,St Helens,53.437446,-2.705657,m,0.146,2026-04-08T11:15:00Z,671
26106,Ellerdine ABH,,,,,mBDAT,3.3,2026-04-08T11:00:00Z,168
24,Ellerdine Grange OBH,,,,,mBDAT,0.878,2026-04-08T09:00:00Z,166
2888,Ellerdine Station ABH,,,,,mBDAT,2.53,2026-04-08T11:00:00Z,168
4387TH,Eltham Palace Road FD,,,51.45198,0.032669,mAOD,0.116,2026-04-08T11:15:00Z,673
L2841,Elvington Pumping Station,Elvington Beck,Elvington Pumping Station upstream,53.91864,-0.932766,---,4.048,2026-04-08T11:15:00Z,671
2716SO,Emsworth,West Brook,Emsworth,50.848736,-0.939866,mAOD,1.858,2026-04-08T11:00:00Z,670
5354TH,Enfield Golf Course FSA FD,,,51.647276,-0.100119,mAOD,24.864,2026-04-08T11:30:00Z,671
744010,Ennerdale Lake,,,54.524681,-3.409458,m,2.065,2026-04-08T11:15:00Z,671
26116,Ensdon ABH,,,,,mBDAT,12.29,2026-04-08T11:00:00Z,168
1460TH_w1,Enslow GS,,,51.861393,-1.30321,mASD,-0.338,2026-04-08T10:30:00Z,668
1460_w1TH,Enslow Weir A,River Cherwell,Shipton-On-Cherwell,51.861393,-1.30321,mASD,0.378,2026-04-08T11:15:00Z,671
DIFF_TB2_TB9,Erith TG and Charlton,,,51.494354,0.026414,m,4.629,2026-04-08T11:24:10Z,8638
DIFF_TB3_TB9,Erith TG and Tower Pier,,,51.494354,0.026414,m,5.0,2026-04-08T10:33:10Z,8744
2891E,Espley Farm ABH,,,,,mBDAT,2.64,2026-04-08T11:00:00Z,168
2891W,Espley Farm ABH,,,,,mBDAT,3.34,2026-04-08T11:00:00Z,168
1210TH,Evenlode Bridge,River Evenlode,Evenlode,51.95095,-1.679842,mASD,0.458,2026-04-08T11:15:00Z,671
SU57_165,Everington House,,,,,mAOD,78.33,2026-04-08T05:00:00Z,162
43188,Everleigh,Groundwater Level,,51.288489,-1.721176,mAOD,128.133,2026-04-08T09:15:00Z,663
2002,Evesham,River Avon,Evesham,52.092165,-1.942876,mASD,0.559,2026-04-08T11:15:00Z,671
3350THF,Ewell GS,,,51.355811,-0.255109,m3/s,0.117,2026-04-08T11:30:00Z,671
0130TH,Ewen,River Thames,Ewen,51.674733,-1.9904,mASD,0.705,2026-04-08T11:15:00Z,671
713207,Ewood Ashville Terrace North,Ewood Mill Race,Blackburn,53.726088,-2.490476,m,0.048,2026-04-08T11:30:00Z,671
713207a,Ewood Ashville Terrace South,Ewood Mill Race,Blackburn,53.72557,-2.489743,m,0.01,2026-04-08T11:30:00Z,671
2553,Ewyas Harold,Dulas Brook,Dulas Brook,51.958229,-2.898779,mASD,0.071,2026-04-08T11:30:00Z,671
45125,Exebridge,River Exe,,51.013813,-3.520532,m,0.282,2026-04-08T11:00:00Z,670
E84263,Exeter Alphington Mill Lane,Alphin Brook,,50.702201,-3.537179,m,0.093,2026-04-08T11:30:00Z,671
E84189,Exeter Heavitree Sweetbriar Lane,Northbrook,,50.723577,-3.491564,m,0.016,2026-04-08T11:00:00Z,669
E71313,Exeter Pynes Stafford Bridge,River Exe,,50.75649,-3.529203,m,2.087,2026-04-08T11:30:00Z,671
45124,Exford,River Exe,Exford,51.132851,-3.640854,m,0.349,2026-04-08T10:45:00Z,669
45195,Exmouth Phear Park,Withycombe Brook,Exmouth Phear Park,50.626633,-3.405232,m,0.061,2026-04-08T11:00:00Z,669
E23500,FENCE BRIDGE GATE RL,,,,,mAOD,1.122,2026-04-08T11:15:00Z,670
E1810,FERRIBY SLUICE EAST DRAIN OUTFALL,,,53.676065,-0.524188,mAOD,0.308,2026-04-08T10:00:00Z,665
E9500,FERRING RIFE RL,,,50.820442,-0.443874,mAOD,3.572,2026-04-08T11:15:00Z,671
E10850,FERRY PS,,,,,mAOD,-1.887,2026-04-08T11:00:00Z,669
067650,FINCHETTS GUTTER CLIFTON DRIVE,,,53.198007,-2.921992,m,3.105,2026-04-08T11:30:00Z,671
E10530,FITTLEWORTH RL,,,50.954776,-0.558421,mAOD,3.792,2026-04-08T11:15:00Z,671
E2590,FITZWILLIAM SLUICE GREATFORD WITS,,,52.691674,-0.398018,mAOD,13.099,2026-04-08T11:15:00Z,670
E4805,FIVE WILLOW WATH BRIDGE GS SOUTH KYME WITS,,,53.005402,-0.234331,mAOD,0.001,2026-04-08T11:30:00Z,671
E2604,FLETLAND MILL SLUICE BASTON,,,52.716617,-0.367879,mAOD,8.162,2026-04-03T03:30:00Z,160
E1825,FLORE HILL GS,,,52.233564,-1.074097,mAOD,77.4,2026-04-08T10:03:03Z,671
9114SE,FOLLY FARM UP SOMBORNE GWL,,,,,mAOD,56.018,2026-04-08T05:00:55Z,169
E18195,FORDINGBRIDGE BOWERWOOD ROAD RL TO BE WITSD,,,50.924922,-1.80061,m,0.407,2026-04-08T06:00:00Z,649
43163,FORDINGBRIDGE PS WITS,,,50.926653,-1.787583,m,0.784,2026-04-08T11:15:00Z,671
E1720,FOSSDYKE BURTON WATERS GS,,,53.248451,-0.598475,mAOD,4.36,2026-04-08T11:00:00Z,677
E4886,FOSSDYKE CANAL ODDER BRIDGE GS WITS,,,53.262721,-0.625835,mAOD,4.341,2026-04-08T11:30:00Z,671
E1551,FOTHERINGHAY GS,,,52.526819,-0.428685,m3/s,0.782,2026-04-08T11:15:00Z,670
E4418,FOUR MILE BAR GS COWBIT,,,52.720221,-0.141261,mAOD,3.056,2026-04-08T11:15:00Z,671
E3300,FOX HILL GWL,,,,,mAOD,5.419,2026-04-08T11:07:46Z,1321
E21775,FOXTON BOREHOLE,,,,,m,-4.25,2026-04-08T06:08:35Z,679
E1722,FRESHNEY PS GRIMSBY WITS,,,53.567416,-0.083112,mAOD,2.363,2026-04-08T11:30:00Z,671
E4890,FRESHNEY TILTING GATE GRIMSBY WITS,,,53.566445,-0.089317,mAOD,2.454,2026-04-08T11:30:00Z,671
E12022,FROGMILL GS,,,50.93142,-1.257426,m3/s,1.071,2026-04-08T11:30:00Z,671
531117,FROME RODDEN BRIDGE,,,51.230918,-2.308854,m3/s,0.517,2026-04-08T11:15:00Z,671
E13951,FULLERTON MAIN GS,,,51.151253,-1.458788,mASD,0.432,2026-04-08T11:15:00Z,671
E1685,FULSBY LOCK R BAIN GS,,,53.131624,-0.146782,m,0.204,2026-04-08T11:00:00Z,673
E2991,FULSBY LOCK R BAIN GS,,,53.131624,-0.146782,m3/s,0.892,2026-04-08T11:00:00Z,673
SU66_91,Fair Cross OBH,,,,,mAOD,41.498,2026-04-08T10:00:00Z,167
F1701,Fairburn Sluices,,,53.738253,-1.290587,m,0.429,2026-04-08T11:30:00Z,671
L1711,Fairburn Sluices,Aire Washlands,Fairburn Sluices Washland Level,53.738253,-1.290587,---,0.409,2026-04-08T11:15:00Z,671
0680TH,Fairford,River Coln,Fairford,51.709394,-1.783971,m3/s,0.625,2026-04-08T11:15:00Z,671
SP10_105,Fairford FC OBH,,,,,mAOD,80.696,2026-04-08T10:00:00Z,167
SP10_85,Fairford OBH,,,,,mAOD,89.335,2026-04-08T05:00:00Z,162
SU19_86,Fairford Whelford OBH,,,,,mAOD,77.63,2026-04-08T10:00:00Z,167
E25940,Fakenham,River Wensum,Fakenham,52.827359,0.847422,m,0.514,2026-04-08T11:00:00Z,668
735225,Far Sawrey,Windermere,Mitchell Wyke Ferry Bay,54.352722,-2.940028,m,0.569,2026-04-08T11:15:00Z,671
2265,Farley Bridge,Rea Brook,,52.664312,-2.90597,mASD,0.189,2026-04-08T11:15:00Z,671
2883TH,Farlows Bridge,River Colne,Iver,51.518153,-0.498245,mASD,0.445,2026-04-08T11:30:00Z,671
SU37_59A,Farncombe OBH,,,,,mAOD,129.587,2026-04-08T05:00:00Z,162
SU37_59B,Farncombe OBH,,,,,mAOD,131.765,2026-04-08T05:00:00Z,162
3020TH,Farnham,River Wey,Farnham,51.209424,-0.803594,mASD,0.234,2026-04-08T11:00:00Z,670
SU94_80,Farnham Kingshott Cottage,,,,,mAOD,50.448,2026-04-08T10:00:00Z,167
SU74_6,Farnham Stapeley Down Farm,,,,,mAOD,92.981,2026-04-08T10:00:00Z,167
SU74_12,Farnham The Old Farm,,,,,mAOD,96.601,2026-04-08T08:00:00Z,165
9634SE,Farningham OBH,,,,,mAOD,26.682,2026-04-08T10:01:23Z,174
690408,Farnworth,River Croal,Farnworth,53.557357,-2.388815,m,0.098,2026-04-08T11:15:00Z,671
5011,Fazeley FG (w),,,52.611058,-1.69939,mASD,0.671,2026-04-08T06:30:00Z,651
690211,Featherstall Brook,,,53.642852,-2.108983,m,0.195,2026-04-08T11:30:00Z,671
L0927,Featherstone Priordale Road,,,53.673821,-1.368567,m,0.439,2026-04-08T11:15:00Z,670
2626,Feckenham,Bow Brook,Feckenham,52.248746,-1.994455,mASD,0.113,2026-04-08T11:15:00Z,671
5291TH,Feildes Weir,,,51.76432,0.014322,mAOD,27.768,2026-04-08T11:15:00Z,671
7058,Fenemere OBH,,,,,mBDAT,22.07,2026-04-08T09:00:00Z,166
52212,Fenny Castle,River Sheppey,Godney,51.191655,-2.719186,m,0.166,2026-04-08T11:15:00Z,671
L13512,Fenton Dam,Bushy Beck,Fenton Dam,53.704118,-1.566525,m,0.259,2026-04-08T11:30:00Z,671
E81356,Ferndown Tricketts Cross,Uddens Water,Ferndown,50.81268,-1.8718,m,0.614,2026-04-08T09:00:00Z,661
E9510,Ferring Outfall,River Arun,Ferring,50.803264,-0.452563,mAOD,-3.554,2026-04-08T11:15:00Z,671
693544,Ferry Lane, Warrington,Manchester ship canal,Warrington,53.384851,-2.528791,m,0.288,2026-04-08T11:30:00Z,671
0328TH,Field End Road FD,,,51.561372,-0.380846,mAOD,33.69,2026-04-08T11:15:00Z,671
SP20_103,Field Farm SEBA OBH,,,,,mAOD,91.077,2026-04-08T10:00:00Z,167
E255,Filton Southmead Road,River Trym,Filton Bristol,51.504439,-2.58776,m,0.005,2026-04-08T11:30:00Z,671
693001,First Avenue,Borsdane Brook,Hindley,53.534147,-2.578191,m,0.158,2026-04-08T11:15:00Z,671
E73124,Fishguard,,,52.01321,-4.98371,m,3.557,2026-04-08T11:15:00Z,595
E73139,Fishguard,,,52.01321,-4.98371,mAOD,1.117,2026-04-08T11:15:00Z,595
E13480,Fishlake,Fishlake Stream,Romsey,50.997377,-1.496618,---,0.577,2026-04-08T11:00:00Z,670
L0942,Fishlake Woodhouse Ings (Temporary),Green Dyke,Fishlake Woodhouse Washland,53.608835,-1.032201,m,0.966,2026-04-08T11:15:00Z,670
E65201,Fiskerton Sluice,River Witham,Stainfield,53.226658,-0.368683,mAOD,0.432,2026-04-08T11:30:00Z,671
736406,Fitz Bridge,Dragley Beck,Ulverston,54.190809,-3.082545,m,0.182,2026-04-08T11:15:00Z,671
4183,Flint Mill,River Churnet,Flint Mill, Cheddleton,53.070627,-2.041308,mASD,0.154,2026-04-08T11:30:00Z,671
F2004,Flint Mill,River Wharfe,Wetherby,53.920115,-1.358935,---,0.635,2026-04-08T11:15:00Z,671
1903,Fockbury OBH,,,,,mBDAT,1.134,2026-04-08T09:00:00Z,166
690137,Folly Clough Brook,Folly Clough,Crawshawbooth, Rossendale,53.725377,-2.285563,m,0.205,2026-04-08T11:15:00Z,671
684029,Folly Gates,,,53.276556,-2.854006,m,3.013,2026-04-08T11:15:00Z,671
711086,Footholme Flume,River Dunsop,Footholme Flume,53.970893,-2.530637,m,0.525,2026-04-08T09:00:00Z,661
055041,Ford Bridge,River Lugg,,52.191921,-2.718721,mASD,0.404,2026-04-08T11:15:00Z,671
SJ48_97,Fords,,,,,m,16.555,2026-04-08T07:00:00Z,164
E3826,Fordwich River Level,Great Stour,Fordwich, Canterbury,51.296461,1.129525,mAOD,1.713,2026-04-08T11:30:00Z,671
SJ59_83C,Forest Farm,,,,,m,12.293,2026-04-08T06:00:00Z,163
5042,Forge Mill Reservoir,,,52.533844,-1.944283,mAOD,98.7,2026-04-08T11:30:00Z,671
F2709,Forge Valley,River Derwent,Forge Valley,54.257576,-0.48388,m,0.289,2026-04-08T06:00:00Z,649
SD20_21,Formby Golf Course,,,,,m,1.644,2026-04-08T05:00:00Z,162
685520,Fornalls Bridge,River Birket,Hoylake,53.396899,-3.151606,m,0.31,2026-04-08T11:15:00Z,671
26112,Forton ABH,,,,,mBDAT,20.86,2026-04-07T13:00:00Z,146
26115,Forton Heath ABH,,,,,mBDAT,23.48,2026-04-08T11:00:00Z,168
E2080,Fosdyke Bridge,Tide,Fosdyke Bridge,52.872053,-0.044732,mASD,3.028,2026-04-08T10:00:00Z,666
E1672,Fosdyke Jetty,Fosdyke Canal,Lincoln,53.23087,-0.555797,mASD,1.27,2026-04-08T11:15:00Z,670
53135,Fosseway,Sherston Avon,Easton Grey,51.581999,-2.158019,m,0.262,2026-04-08T11:15:00Z,671
E2734,Fosters Bridge,River Chater,South Luffenham,52.616269,-0.582013,mASD,0.23,2026-04-08T11:15:00Z,670
F3120,Foston Mill,,,53.97829,-0.334,m,0.379,2026-04-08T11:00:00Z,670
4765,Foston Reservoir,,,52.869404,-1.719521,mASD,0.543,2026-04-08T11:30:00Z,671
SJ56_90B,Fourways Drift No2,,,,,m,3.169,2026-04-08T06:00:00Z,163
53141,Frampton Cotterell,Bristol Frome,Frampton Cotterell,51.537816,-2.481077,m,0.074,2026-04-08T11:15:00Z,671
26119,Frankbrook ABH,,,,,mBDAT,16.15,2026-04-08T11:00:00Z,168
E22184,Freebridge,River Great Ouse,Kings Lynn,52.741419,0.387195,m,2.362,2026-04-08T10:00:00Z,665
761441,Freshfield Bank RL,,,51.095884,0.030095,mAOD,61.681,2026-04-08T11:30:00Z,671
E8210,Freshfield Bridge,River Ouse,Scayne's Hill,51.002867,-0.027718,mASD,0.01,2026-04-08T11:15:00Z,671
E14690,Freshwater,Western Yar,Freshwater,50.682683,-1.517797,mAOD,0.831,2026-04-08T11:15:00Z,671
SU57_221,Frilsham OBH,,,,,mAOD,73.647,2026-04-08T06:00:00Z,163
SP62_1,Fringford PS OBH,,,,,mAOD,97.552,2026-04-08T05:00:17Z,169
4873,Frisby on the Wreake,River Wreake,Frisby on the Wreake,52.755673,-0.970755,mASD,0.467,2026-04-08T11:15:00Z,671
L3130,Frodingham Bridge,Frodingham Beck,Frodingham Bridge,53.968264,-0.339599,---,0.546,2026-04-08T11:15:00Z,670
SJ47_63,Frodsham Marsh,,,,,m,4.094,2026-04-08T06:00:00Z,163
682500,Frodsham PS,,,53.397576,-3.011334,m,3.317,2026-04-08T11:30:00Z,671
5562TH,Frog Island Tidal Sluice FD,,,51.507967,0.174152,mAOD,0.056,2026-04-08T11:00:00Z,670
4119,Froghall,River Churnet,Froghall,53.023087,-1.968659,mASD,0.298,2026-04-08T11:30:00Z,671
E12020,Frogmill,River Hamble,Curdridge,50.931347,-1.257371,mAOD,0.273,2026-04-08T11:15:00Z,671
E13950,Fullerton Main,River Anton,Fullerton,51.15131,-1.459531,mAOD,-0.008,2026-04-08T11:30:00Z,671
E13961,Fullerton Side,River Anton,Fullerton,51.152158,-1.460093,V,0.053,2026-04-08T11:00:00Z,670
SD27_8,Furness Abbey,,,,,m,5.044,2026-04-08T07:00:00Z,164
E1935,GELDHARTS MILL GS NORTHAMPTON,,,52.271259,-0.922171,m3/s,0.716,2026-04-08T11:15:00Z,671
E26921,GIPPING RESERVOIR SLUICE,,,52.19844,0.992405,mAOD,26.99,2026-04-08T11:15:00Z,696
E22552,GLEMSFORD FGS DUAL COMMS,,,52.092341,0.693285,m3/s,0.194,2026-04-08T11:15:00Z,670
E25767,GLEVERING MILL SLUICE,,,52.159428,1.371463,mAOD,11.779,2026-04-08T11:00:00Z,334
E10525,GOLD CORNER,,,51.183266,-2.906699,m,1.613,2026-04-08T11:30:00Z,671
E10565,GOLD CORNER,,,51.183266,-2.906699,m,3.331,2026-04-08T11:30:00Z,671
E8222,GOLDBRIDGE GS,,,50.974053,0.034122,m3/s,1.088,2026-04-08T11:30:00Z,671
45263,GOOSEMOOR GS,,,50.695399,-3.318679,m,0.063,2026-04-08T11:15:00Z,670
E3026,GOULCEBY GS WITS,,,53.297401,-0.13229,m3/s,0.377,2026-04-08T11:15:00Z,671
E4896,GRAINSBY BOREHOLE,,,,,mAOD,22.02,2026-04-08T11:15:00Z,671
E4898,GRANGE DE LINGS BOREHOLE,,,,,mAOD,40.693,2026-04-08T08:45:00Z,661
E4473,GRANGE FARM ASWARBY BOREHOLE,,,,,mAOD,20.328,2026-04-08T11:15:00Z,671
E10898,GRAYLINGWELL GWL,,,,,mAOD,21.11,2026-04-08T11:16:41Z,1365
43184,GREAT DURNFORD GW DNP3,,,,,mAOD,58.432,2026-04-08T09:00:00Z,662
E1139,GREAT EAU OUTFALL SLUICE SALTFLEET,,,53.415968,0.193457,mAOD,0.802,2026-04-08T10:00:00Z,665
E4900,GREAT GOWT SLUICE AUTO WITS,,,53.220735,-0.549518,mAOD,4.351,2026-04-08T11:00:00Z,670
E4902,GREAT GOWT SLUICE AUTO WITS,,,53.220735,-0.549518,mAOD,3.319,2026-04-08T11:00:00Z,670
E2663,GREAT HARROWDEN GS,,,52.331973,-0.681966,m3/s,0.696,2026-04-08T11:15:00Z,671
E4486,GREAT OAKLEY FSR NORTHANTS,,,52.461427,-0.711074,mAOD,82.8,2026-04-08T11:15:00Z,671
E21332,GREAT SAMPFORD FGS AND RAINGAUGE,,,51.989985,0.394354,m,0.335,2026-04-08T10:00:00Z,666
E22476,GREAT SAMPFORD FGS AND RAINGAUGE,,,51.989985,0.394354,m3/s,1.12,2026-04-08T10:02:39Z,695
E2587,GREATFORD SLUICE,,,52.691674,-0.398018,mAOD,13.176,2026-04-08T11:00:00Z,670
E10152,GREATHAM BRIDGE RL,,,,,mAOD,,2026-04-08T11:30:00Z,671
E5485,GREATSTONE PS,,,50.97502,0.964524,mAOD,1.318,2026-04-08T11:15:00Z,671
E1949,GRENDON GS WITS,,,52.239063,-0.71136,mAOD,48.073,2026-04-08T11:15:00Z,670
E21011,GRESSENHALL SLUICE WITS,,,52.713553,0.925589,mAOD,28.933,2026-04-08T11:15:00Z,702
E27452,GRIMSBY GREAT COATES BRIDGE GS WITS,,,53.564461,-0.127006,mASD,3.007,2026-04-08T11:15:00Z,670
E27454,GRIMSBY GREAT COATES BRIDGE GS WITS,,,53.564461,-0.127006,mASD,2.583,2026-04-08T11:15:00Z,670
E22834,GUITHAVON VALLEY FGS WITHAM,,,51.801379,0.635286,m3/s,0.322,2026-04-08T11:15:00Z,670
SW85F055,GWILLS,,,50.393097,-5.056267,m3/s,0.464,2026-04-08T09:00:00Z,661
6852,Gainsborough TVG OBH,,,,,mBDAT,1.797,2026-04-08T09:15:00Z,663
724836,Galgate,River Conder,Galgate,53.991743,-2.792162,m,0.222,2026-04-08T11:15:00Z,671
F1509,Gargrave High Street,River Aire,Gargrave High Street,53.983214,-2.109719,m,0.346,2026-04-08T11:30:00Z,671
720105,Garstang FCS,,,53.904538,-2.767831,m,0.389,2026-04-08T11:15:00Z,671
023047,Gateshead St Omers Haugh,,,54.955468,-1.637163,mAOD,-0.494,2026-04-08T11:30:00Z,671
3210TH,Gatwick Airport,River Mole,Charlwood,51.144764,-0.19953,m3/s,0.176,2026-04-08T11:15:00Z,671
3229TH,Gatwick Link,Gatwick Stream,Horley,51.160212,-0.163604,mASD,0.143,2026-04-08T11:15:00Z,671
52119,Gaw Bridge,River Parrett,Kingsbury Episcopi,50.976043,-2.793549,mASD,0.354,2026-04-08T11:15:00Z,671
5550TH,Gaynes Park,River Ingrebourne,Upminster,51.553141,0.236647,mASD,0.12,2026-04-08T11:00:00Z,670
SD41_30,Germans Bridge,,,,,m,-1.443,2026-04-08T05:00:00Z,162
SU47_141,Gibbet Cottage OBH,,,,,mAOD,125.962,2026-04-08T10:00:00Z,167
43226,Gillingham Le Neubourg Way,River Stour,Gillingham,51.037252,-2.278768,m,0.417,2026-04-08T04:15:00Z,643
E47050,Girton,Washpit Brook,Girton,52.243719,0.07758,m,0.812,2026-04-08T11:15:00Z,671
724839,Glasson Dock,River Lune,,53.998821,-2.84813,m,0.953,2026-04-08T11:15:00Z,671
E22548,Glemsford,River Glem,Stanstead,52.09308,0.693213,m,0.122,2026-04-08T11:15:00Z,670
E5462,Glenfield Gate Upstream Level,,,51.068245,0.919373,mAOD,1.412,2026-04-08T11:15:00Z,670
E5464,Glenfield Gate West Hythe Dam Level,,,51.066639,1.022482,mAOD,2.042,2026-04-08T11:15:00Z,670
761514,Glenridding Steamer Pier,Ullswater,Glenridding,54.543833,-2.944108,m,0.923,2026-04-08T11:15:00Z,671
761515,Glenridding Village,Glenridding Beck,,54.543667,-2.95035,m,0.207,2026-04-08T11:30:00Z,671
2165,Gloucester,River Severn,Gloucester,51.864982,-2.252201,mASD,0.508,2026-04-08T11:15:00Z,671
3056TH,Godalming,River Wey,,51.192301,-0.598506,---,0.547,2026-04-08T11:15:00Z,671
E24302,Godmanchester,River Great Ouse,Godmanchester,52.318507,-0.176335,mASD,0.385,2026-04-08T10:00:00Z,666
1302TH,Godstow Lock,River Thames,Wytham,51.776669,-1.298428,---,-0.012,2026-04-08T11:15:00Z,671
5114,Goosehill Bridge, Castleton,Peakshole Water,Castleton,53.341981,-1.778613,mASD,0.092,2026-04-08T11:30:00Z,671
2003TH,Goring Lock,River Thames,Streatley,51.523317,-1.141252,---,2.875,2026-04-08T11:15:00Z,671
713115,Gorse Street,River Blakewater,Blackburn,53.753787,-2.456994,m3/s,0.043,2026-04-08T11:30:00Z,671
SJ36_084,Gorstella,,,,,m,0.691,2026-04-08T06:00:00Z,163
023054,Gosforth,Ouse Burn,Gosforth,55.017771,-1.614378,m,0.372,2026-04-08T11:15:00Z,671
E1147,Goulceby,River Bain,Goulceby,53.296901,-0.131922,mASD,0.094,2026-04-08T11:15:00Z,670
F2108a,Gouthwaite Reservoir,Reservoir,Gouthwaite Reservoir mAV,54.110293,-1.785619,m,11.322,2026-04-08T11:30:00Z,671
26118,Grafton ABH,,,,,mBDAT,10.19,2026-04-08T11:00:00Z,168
0901TH,Grafton Lock,River Thames,Eaton Hastings,51.690894,-1.607898,---,0.111,2026-04-08T11:15:00Z,663
SU38_80B,Gramps Hill,,,,,mAOD,123.106,2026-04-08T10:00:00Z,167
735003,Grasmere Broadgate Meadow,River Rothay,Grasmere,54.460483,-3.021651,m,0.374,2026-04-08T11:30:00Z,671
E3070,Grasmere Road,Swalecliffe Brook,Swalecliffe,51.351358,1.060038,mAOD,8.15,2026-04-08T11:30:00Z,671
766010,Grass Dyke,,,54.925012,-3.11898,m,0.08,2026-04-08T11:15:00Z,671
4188TH,Graveney at Robinson Road,,,51.422024,-0.174344,mASD,0.159,2026-04-08T11:15:00Z,671
685505,Greasby Road,Arrowe Brook,Upton (Wirral),53.383036,-3.108143,---,0.221,2026-04-08T11:15:00Z,671
2889,Great Bolas ABH,,,,,mBDAT,6.6,2026-04-08T11:00:00Z,168
685519,Great Culvert Entrance,,,53.406645,-3.05916,m,0.759,2026-04-08T11:15:00Z,671
4161,Great Glen,River Sence,Great Glen,52.574167,-1.035067,mASD,0.844,2026-04-08T11:15:00Z,671
NY71_3,Great Musgrave BH,,,,,m,7.814,2026-04-08T07:00:00Z,164
760112,Great Musgrave Bridge,River Eden,Great Musgrave,54.512818,-2.364477,m,0.245,2026-04-08T11:15:00Z,671
SE46GOB0SS,Great Ouseburn,,,,,mAOD,16.242,2026-04-08T06:00:00Z,650
SU37_1,Great Shefford OBH,,,,,mAOD,106.266,2026-04-08T05:00:00Z,162
2843,Great Wollascott ABH,,,,,mBDAT,29.07,2026-04-08T11:00:00Z,168
E31349,Great Yeldham,River Colne,,52.028205,0.541889,mAOD,0.217,2026-04-08T04:00:00Z,641
26103,Green Lane ABH,,,,,mBDAT,12.71,2026-04-08T11:00:00Z,168
26109,Greenfields ABH,,,,,mBDAT,2.71,2026-04-08T11:00:00Z,168
1471TH,Grendon Underwood,River Ray,Grendon Underwood,51.884491,-1.012852,mASD,0.04,2026-04-08T11:15:00Z,671
L0681,Grimesthorpe,Bagley Dike,Grimesthorpe,53.406175,-1.435939,m,-0.024,2026-04-08T11:30:00Z,671
5005,Grinshill OBH,,,,,mBDAT,11.84,2026-04-08T09:00:00Z,166
SJ54_102,Gro Cot,,,,,m,8.536,2026-04-08T07:00:00Z,164
690700,Grotton Hollow,,,53.539354,-2.053007,m,-0.149,2026-04-08T11:30:00Z,671
SD44_12,Gubberford Lane T12,,,,,m,2.641,2026-04-08T11:00:00Z,168
47117,Gunnislake,River Tamar,Gunnislake,50.531278,-4.221847,m,0.525,2026-04-08T11:00:00Z,670
4189,Gunthorpe LVL,,,52.986363,-0.977571,mASD,0.582,2026-04-08T11:00:00Z,670
E4906,HABROUGH MARSH DRAIN OUTFALL IMMINGHAM WITS,,,53.624195,-0.175171,mAOD,3.378,2026-04-08T11:30:00Z,671
E3550,HACKLINGE PS,,,,,mAOD,-1.669,2026-04-08T11:30:00Z,671
E3551,HACKLINGE PS,,,,,mAOD,-1.674,2026-04-08T11:30:00Z,671
E602,HADLOW EMGS,,,51.224525,0.33507,m3/s,0.185,2026-04-08T11:15:00Z,671
E21863,HAIL WESTON MEAGRE FARM GS,,,52.254228,-0.308018,m3/s,0.133,2026-04-08T10:00:00Z,666
E25971,HALSTEAD FLOOD ALLEVIATION,,,51.951312,0.632908,mAOD,34.31,2026-04-08T11:30:00Z,670
E25973,HALSTEAD FLOOD ALLEVIATION,,,51.951312,0.632908,mAOD,34.32,2026-04-08T11:30:00Z,670
E25975,HALSTEAD FLOOD ALLEVIATION,,,51.951312,0.632908,mAOD,34.32,2026-04-08T11:30:00Z,670
E25977,HALSTEAD FLOOD ALLEVIATION,,,51.951312,0.632908,mAOD,34.6,2026-04-08T11:30:00Z,670
E4910,HALTHAM BECK WITS,,,53.157573,-0.126265,mAOD,0.356,2026-04-08T11:15:00Z,671
E7060,HAMMERWOOD BRIDGE GS,,,50.90222,0.393649,m3/s,0.137,2026-04-08T11:30:00Z,671
E7061,HAMMERWOOD BRIDGE GS,,,50.90222,0.393649,mASD,0.262,2026-04-08T11:30:00Z,671
SP10_88,HAMPTON FIELD OBH,,,,,mAOD,92.304,2026-04-08T10:00:00Z,167
E5500,HAMSTREET RL,,,51.06618,0.857033,mAOD,2.789,2026-04-08T11:15:00Z,671
E26951,HANDFORD SLUICE WITS,,,52.054368,1.137404,mAOD,3.248,2026-04-08T11:15:00Z,670
SX75F010,HARBERTONFORD BRIDGE,,,50.392644,-3.711615,m3/s,0.59,2026-04-08T11:15:00Z,670
E2721,HARDWATER MILL SLUICE GREAT DODDINGTON,,,52.264488,-0.717818,mAOD,44.694,2026-04-08T11:15:00Z,671
SP00_144,HARES BUSHES OBH,,,,,mAOD,107.044,2026-04-08T06:00:17Z,170
E12760,HARESTOCK GWL,,,,,mAOD,56.591,2026-04-08T05:49:43Z,661
E14552,HARTFORD BRIDGE GS,,,50.832936,-1.461056,m3/s,0.22,2026-04-08T11:00:00Z,670
E21722,HASLINGFIELD BURNT MILL GS,,,52.151565,0.067161,m3/s,1.07,2026-04-08T06:00:00Z,650
E45688,HASLINGFIELD BURNT MILL NUMBER 2 GS GSM,,,52.151565,0.067161,m,0.189,2026-04-08T11:15:00Z,671
E4912,HATCLIFFE GS WITS,,,53.489465,-0.172609,mAOD,33.826,2026-04-08T11:15:00Z,671
E24816,HAVEN BRIDGE TS WITS,,,52.606673,1.723383,mAOD,0.386,2026-04-08T11:00:00Z,670
E1351,HAVENHOUSE SLUICE AUTO WITS under test,,,53.114206,0.28011,mASD,2.758,2026-04-08T11:30:00Z,671
E21985,HAVERHILL WASHLANDS GS,,,52.093857,0.415972,mAOD,70.407,2026-04-08T11:15:00Z,670
E26981,HAWKS MILL SLUICE NEEDHAM MARKET,,,52.157328,1.052521,mAOD,21.126,2026-04-08T11:15:00Z,671
E15252,HAWLEY GS,,,51.424321,0.231228,m3/s,0.752,2026-04-08T11:30:00Z,671
0,HELEBRIDGE,,,50.806271,-4.5365,m,0.013,2026-04-08T11:00:00Z,670
49168,HELEBRIDGE,,,50.806271,-4.5365,m3/s,0.346,2026-04-08T11:00:00Z,670
E21581,HELLESDON MILL SLUICE NORWICH,,,52.647705,1.246275,mAOD,3.628,2026-04-08T11:15:00Z,671
E8011,HELLINGLY RL,,,50.888318,0.244134,mAOD,15.825,2026-04-08T11:15:00Z,671
48198,HELSTON COUNTY BRIDGE,,,50.099947,-5.279833,m3/s,10.591,2026-04-08T11:15:00Z,671
E7071,HENLEY BRIDGE GS,,,50.899199,0.375972,mASD,0.146,2026-04-08T11:30:00Z,671
F7070,HENLEY BRIDGE GS,,,50.899199,0.375972,m3/s,0.056,2026-04-08T11:30:00Z,671
E24872,HEYBRIDGE,,,51.72865,0.709257,mAOD,-0.398,2026-04-08T11:30:00Z,670
E82185,HEYTESBURY A36,,,51.182969,-2.128492,m3/s,1.239,2026-04-08T11:15:00Z,670
E22720,HIGHAM RGS,,,51.979883,0.957419,m,0.182,2026-04-08T10:00:00Z,666
E12443,HIGHBRIDGE GS,,,50.990555,-1.335275,m3/s,6.487,2026-04-08T11:15:00Z,671
E680,HILDEN BROOK RL,,,51.203801,0.268054,mAOD,21.212,2026-04-08T11:15:00Z,671
E24817,HITCHIN GS,,,51.947059,-0.276838,m,0.114,2026-04-08T06:43:49Z,1080
E43214,HOLLAND SLUICE CLACTON WITS,,,51.809363,1.217564,mAOD,-0.567,2026-04-08T11:15:00Z,671
E23169,HOLTON GS,,,52.337364,1.530359,m,0.185,2026-04-08T11:15:00Z,671
E7000,HONEYCROCK PS,,,,,mAOD,0.597,2026-04-08T11:30:00Z,671
E21158,HONING LOCK GS,,,52.79069,1.455968,m,0.121,2026-04-08T11:00:00Z,670
E1712,HONINGTON BECK GS,,,52.979421,-0.608134,m,0.15,2026-04-08T11:15:00Z,671
E3053,HONINGTON BECK GS,,,52.979421,-0.608134,m3/s,0.132,2026-04-08T11:00:00Z,670
E4916,HORKSTOW ROAD BARTON BOREHOLE,,,,,mAOD,5.213,2026-04-08T11:15:00Z,671
E1488,HORNCASTLE BANKS ROAD GS,,,53.208428,-0.111318,m3/s,0.208,2026-04-08T10:00:00Z,654
E1171,HORNCASTLE BATHS SLUICE WITS under test,,,53.206436,-0.121768,mASD,26.97,2026-04-08T11:30:00Z,671
E3465,HORNCASTLE FSR WITS,,,53.260343,-0.157609,mAOD,40.451,2026-04-08T11:30:00Z,671
